using minicom at 9600 and 8N1

"**" indicates input through com1 port


**log com1 inspvaa once
<OK
[COM1]#INSPVAA,COM1,0,78.5,FREEWHEELING,1859,400474.000,00484020,54e2,13306;1859,400474.000000000,41.39067791639,-73.95326961442,-7.7052,-0.4874,-0.2011,-0.5889,0.000000000,0.000000000,0.000000000,INS_ALIGNING*7da1cd85

**setinitazimuth 270 10
<OK
[COM1]

**log com1 inspvaa once
<OK
[COM1]#INSPVAA,COM1,0,76.5,FINESTEERING,1859,400604.000,00004000,54e2,13306;1859,400604.000000000,41.39056092247,-73.95330642670,-31.5515,-0.0002,-0.0149,0.1007,-0.696179660,-1.878010889,269.990422459,INS_ALIGNMENT_COMPLETE*78cdf7f4


**log com1 inspvaa ontime 0.2
                                                                                                                                                                                                                                
<OK                                                                                                                                                                                                                                     
[COM1]#INSPVAA,COM1,0,77.0,FINESTEERING,1859,400756.200,00004000,54e2,13306;1859,400756.200000000,41.39056203728,-73.95331752598,-31.4098,-0.0007,-0.0003,-0.0008,-0.698838099,-1.843354826,269.479139160,INS_SOLUTION_GOOD*ed662ade    
#INSPVAA,COM1,0,77.0,FINESTEERING,1859,400756.400,00004000,54e2,13306;1859,400756.400000000,41.39056206487,-73.95331742061,-31.3897,-0.0005,-0.0004,-0.0023,-0.699977931,-1.842683116,269.479454294,INS_SOLUTION_GOOD*7dcc169d          
#INSPVAA,COM1,0,78.5,FINESTEERING,1859,400756.600,00004000,54e2,13306;1859,400756.600000000,41.39056208422,-73.95331734468,-31.3753,-0.0015,0.0002,-0.0024,-0.698738669,-1.843867119,269.478768792,INS_SOLUTION_GOOD*f53f40fe           
#INSPVAA,COM1,0,78.5,FINESTEERING,1859,400756.800,00004000,54e2,13306;1859,400756.800000000,41.39056209830,-73.95331728713,-31.3645,-0.0017,-0.0002,-0.0020,-0.699357382,-1.843876669,269.478538604,INS_SOLUTION_GOOD*d4306bb5          
#INSPVAA,COM1,0,78.5,FINESTEERING,1859,400757.000,00004000,54e2,13306;1859,400757.000000000,41.39056210882,-73.95331724173,-31.3560,-0.0012,0.0002,-0.0016,-0.698631772,-1.843652328,269.479132915,INS_SOLUTION_GOOD*6b193bb6           
#INSPVAA,COM1,0,78.5,FINESTEERING,1859,400757.200,00004000,54e2,13306;1859,400757.200000000,41.39056211700,-73.95331720485,-31.3492,-0.0010,0.0001,-0.0022,-0.698954214,-1.843500136,269.477172675,INS_SOLUTION_GOOD*0f56ce9d           
#INSPVAA,COM1,0,77.5,FINESTEERING,1859,400757.400,00004000,54e2,13306;1859,400757.400000000,41.39056212351,-73.95331717412,-31.3436,-0.0009,0.0004,-0.0013,-0.698427101,-1.842646636,269.476626686,INS_SOLUTION_GOOD*0b10a7b5           
#INSPVAA,COM1,0,77.5,FINESTEERING,1859,400757.600,00004000,54e2,13306;1859,400757.600000000,41.39056212880,-73.95331714785,-31.3389,-0.0009,0.0013,-0.0030,-0.698239056,-1.842882698,269.475702095,INS_SOLUTION_GOOD*787e81b4           
#INSPVAA,COM1,0,77.5,FINESTEERING,1859,400757.800,00004000,54e2,13306;1859,400757.800000000,41.39056213313,-73.95331712503,-31.3349,-0.0005,0.0019,-0.0036,-0.698576272,-1.844395051,269.477191118,INS_SOLUTION_GOOD*0eeaae54           
#INSPVAA,COM1,0,77.5,FINESTEERING,1859,400758.000,00004000,54e2,13306;1859,400758.000000000,41.39056213675,-73.95331710485,-31.3315,-0.0004,0.0012,-0.0042,-0.697482454,-1.844970357,269.477001574,INS_SOLUTION_GOOD*17c01430           
#INSPVAA,COM1,0,77.5,FINESTEERING,1859,400758.200,00004000,54e2,13306;1859,400758.200000000,41.39056213985,-73.95331708680,-31.3285,-0.0002,0.0013,-0.0018,-0.698661188,-1.843756396,269.473592393,INS_SOLUTION_GOOD*ca316b69           
#INSPVAA,COM1,0,75.5,FINESTEERING,1859,400758.400,00004000,54e2,13306;1859,400758.400000000,41.39056214250,-73.95331707048,-31.3259,0.0003,0.0020,-0.0030,-0.698058299,-1.843520956,269.475612035,INS_SOLUTION_GOOD*7395a0ad            
#INSPVAA,COM1,0,75.5,FINESTEERING,1859,400758.600,00004000,54e2,13306;1859,400758.600000000,41.39056214475,-73.95331705550,-31.3236,-0.0004,0.0026,-0.0029,-0.697943543,-1.844482598,269.475316640,INS_SOLUTION_GOOD*a8849284           
#INSPVAA,COM1,0,75.5,FINESTEERING,1859,400758.800,00004000,54e2,13306;1859,400758.800000000,41.39056214667,-73.95331704151,-31.3215,-0.0009,0.0035,-0.0032,-0.697115419,-1.843290097,269.474491128,INS_SOLUTION_GOOD*886e696a           
#INSPVAA,COM1,0,75.5,FINESTEERING,1859,400759.000,00004000,54e2,13306;1859,400759.000000000,41.39056214827,-73.95331702834,-31.3196,-0.0006,0.0034,-0.0016,-0.697065542,-1.844711476,269.475246403,INS_SOLUTION_GOOD*299cffb8           
#INSPVAA,COM1,0,75.5,FINESTEERING,1859,400759.200,00004000,54e2,13306;1859,400759.200000000,41.39056214964,-73.95331701596,-31.3179,-0.0004,0.0027,-0.0025,-0.697068737,-1.845221880,269.471492294,INS_SOLUTION_GOOD*73a2e06b           
#INSPVAA,COM1,0,75.5,FINESTEERING,1859,400759.400,00004000,54e2,13306;1859,400759.400000000,41.39056215082,-73.95331700422,-31.3164,-0.0003,0.0032,-0.0021,-0.696346610,-1.845728090,269.470767398,INS_SOLUTION_GOOD*7f5b1167           
#INSPVAA,COM1,0,78.0,FINESTEERING,1859,400759.600,00004000,54e2,13306;1859,400759.600000000,41.39056215188,-73.95331699303,-31.3150,0.0001,0.0029,-0.0031,-0.696643757,-1.845798316,269.471383973,INS_SOLUTION_GOOD*15d66a7d            
#INSPVAA,COM1,0,78.0,FINESTEERING,1859,400759.800,00004000,54e2,13306;1859,400759.800000000,41.39056215286,-73.95331698236,-31.3137,0.0002,0.0022,-0.0023,-0.696489873,-1.846296961,269.471026000,INS_SOLUTION_GOOD*eb257be0            
#INSPVAA,COM1,0,78.0,FINESTEERING,1859,400760.000,00004000,54e2,13306;1859,400760.000000000,41.39056215376,-73.95331697215,-31.3125,0.0008,0.0023,-0.0045,-0.696884999,-1.845852109,269.471306608,INS_SOLUTION_GOOD*5cdf598e            
#INSPVAA,COM1,0,78.0,FINESTEERING,1859,400760.200,00004000,54e2,13306;1859,400760.200000000,41.39056215462,-73.95331696248,-31.3114,0.0010,0.0011,-0.0034,-0.697938160,-1.846856107,269.470812590,INS_SOLUTION_GOOD*fcbbb197            
#INSPVAA,COM1,0,77.0,FINESTEERING,1859,400760.400,00004000,54e2,13306;1859,400760.400000000,41.39056215547,-73.95331695328,-31.3104,0.0010,0.0011,-0.0044,-0.697124984,-1.846811212,269.470524412,INS_SOLUTION_GOOD*96a74e5f            
#INSPVAA,COM1,0,77.0,FINESTEERING,1859,400760.600,00004000,54e2,13306;1859,400760.600000000,41.39056215632,-73.95331694446,-31.3095,0.0014,0.0021,-0.0029,-0.697508710,-1.847619595,269.470626087,INS_SOLUTION_GOOD*e6b17044            
#INSPVAA,COM1,0,77.0,FINESTEERING,1859,400760.800,00004000,54e2,13306;1859,400760.800000000,41.39056215718,-73.95331693598,-31.3086,0.0013,0.0014,-0.0048,-0.697047067,-1.847248529,269.470828486,INS_SOLUTION_GOOD*fa7ae88f            
#INSPVAA,COM1,0,77.0,FINESTEERING,1859,400761.000,00004000,54e2,13306;1859,400761.000000000,41.39056215805,-73.95331692777,-31.3078,0.0009,0.0015,-0.0051,-0.697822979,-1.846818665,269.470753347,INS_SOLUTION_GOOD*3eee2a04            
#INSPVAA,COM1,0,77.0,FINESTEERING,1859,400761.200,00004000,54e2,13306;1859,400761.200000000,41.39056215888,-73.95331691990,-31.3071,0.0004,0.0012,-0.0035,-0.697348172,-1.846604415,269.471021343,INS_SOLUTION_GOOD*8a64cc7d            
#INSPVAA,COM1,0,75.5,FINESTEERING,1859,400761.400,00004000,54e2,13306;1859,400761.400000000,41.39056215967,-73.95331691234,-31.3064,0.0007,0.0013,-0.0029,-0.697433562,-1.848394600,269.471508493,INS_SOLUTION_GOOD*2303d15c            
#INSPVAA,COM1,0,75.5,FINESTEERING,1859,400761.600,00004000,54e2,13306;1859,400761.600000000,41.39056216042,-73.95331690504,-31.3058,0.0003,0.0016,-0.0041,-0.697497883,-1.847366865,269.471342363,INS_SOLUTION_GOOD*53abd56c            
#INSPVAA,COM1,0,75.5,FINESTEERING,1859,400761.800,00004000,54e2,13306;1859,400761.800000000,41.39056216113,-73.95331689795,-31.3051,0.0001,0.0012,-0.0037,-0.697140509,-1.846981838,269.471498198,INS_SOLUTION_GOOD*a42bf43f            
#INSPVAA,COM1,0,75.5,FINESTEERING,1859,400762.000,00004000,54e2,13306;1859,400762.000000000,41.39056216178,-73.95331689107,-31.3046,0.0002,0.0015,-0.0028,-0.697866850,-1.846991704,269.471136313,INS_SOLUTION_GOOD*02b1da5e            
#INSPVAA,COM1,0,75.5,FINESTEERING,1859,400762.200,00004000,54e2,13306;1859,400762.200000000,41.39056216240,-73.95331688446,-31.3040,0.0005,0.0004,-0.0020,-0.697104206,-1.846912759,269.470114293,INS_SOLUTION_GOOD*efa83370            
#INSPVAA,COM1,0,75.5,FINESTEERING,1859,400762.400,00004000,54e2,13306;1859,400762.400000000,41.39056216299,-73.95331687813,-31.3035,0.0006,-0.0003,-0.0024,-0.697457961,-1.847288938,269.470903722,INS_SOLUTION_GOOD*de2acfec           
#INSPVAA,COM1,0,76.5,FINESTEERING,1859,400762.600,00004000,54e2,13306;1859,400762.600000000,41.39056216358,-73.95331687209,-31.3030,0.0012,-0.0010,-0.0014,-0.697322667,-1.846841741,269.470889985,INS_SOLUTION_GOOD*031804f7           
#INSPVAA,COM1,0,76.5,FINESTEERING,1859,400762.800,00004000,54e2,13306;1859,400762.800000000,41.39056216416,-73.95331686638,-31.3025,0.0008,-0.0025,-0.0024,-0.697174504,-1.846533844,269.470669551,INS_SOLUTION_GOOD*ef8a6c26           
#INSPVAA,COM1,0,76.5,FINESTEERING,1859,400763.000,00004000,54e2,13306;1859,400763.000000000,41.39056216474,-73.95331686102,-31.3021,0.0013,-0.0022,-0.0025,-0.698296094,-1.846471327,269.470977753,INS_SOLUTION_GOOD*8597d9b2           
#INSPVAA,COM1,0,76.5,FINESTEERING,1859,400763.200,00004000,54e2,13306;1859,400763.200000000,41.39056216528,-73.95331685596,-31.3016,0.0003,-0.0019,-0.0011,-0.697653581,-1.845540901,269.466930743,INS_SOLUTION_GOOD*df480e98           
#INSPVAA,COM1,0,76.0,FINESTEERING,1859,400763.400,00004000,54e2,13306;1859,400763.400000000,41.39056216580,-73.95331685115,-31.3012,0.0001,-0.0013,-0.0018,-0.698776636,-1.846267943,269.466983043,INS_SOLUTION_GOOD*af6fee57           
#INSPVAA,COM1,0,76.0,FINESTEERING,1859,400763.600,00004000,54e2,13306;1859,400763.600000000,41.39056216628,-73.95331684656,-31.3008,0.0009,-0.0014,-0.0011,-0.698634655,-1.845522146,269.467231987,INS_SOLUTION_GOOD*7d8760e8           
#INSPVAA,COM1,0,76.0,FINESTEERING,1859,400763.800,00004000,54e2,13306;1859,400763.800000000,41.39056216675,-73.95331684221,-31.3004,0.0005,-0.0020,-0.0025,-0.699205699,-1.846497402,269.467324642,INS_SOLUTION_GOOD*2c924b1f           
#INSPVAA,COM1,0,76.0,FINESTEERING,1859,400764.000,00004000,54e2,13306;1859,400764.000000000,41.39056216722,-73.95331683808,-31.3000,0.0008,-0.0021,-0.0022,-0.699090148,-1.846124154,269.466850303,INS_SOLUTION_GOOD*7b4838d3           
#INSPVAA,COM1,0,76.0,FINESTEERING,1859,400764.200,00004000,54e2,13306;1859,400764.200000000,41.39056216767,-73.95331683412,-31.2996,0.0008,-0.0011,-0.0032,-0.698624065,-1.846252437,269.465405636,INS_SOLUTION_GOOD*165a3312           
#INSPVAA,COM1,0,76.0,FINESTEERING,1859,400764.400,00004000,54e2,13306;1859,400764.400000000,41.39056216810,-73.95331683033,-31.2992,-0.0001,-0.0013,-0.0025,-0.699253670,-1.845659567,269.465678880,INS_SOLUTION_GOOD*d58c1d1c          
#INSPVAA,COM1,0,77.0,FINESTEERING,1859,400764.600,00004000,54e2,13306;1859,400764.600000000,41.39056216850,-73.95331682671,-31.2989,-0.0003,-0.0012,-0.0028,-0.698379736,-1.845466609,269.465789045,INS_SOLUTION_GOOD*fbc56882          
#INSPVAA,COM1,0,77.0,FINESTEERING,1859,400764.800,00004000,54e2,13306;1859,400764.800000000,41.39056216884,-73.95331682324,-31.2985,-0.0007,-0.0015,-0.0025,-0.699331406,-1.845576026,269.465831365,INS_SOLUTION_GOOD*1cfcb7c3          
#INSPVAA,COM1,0,77.0,FINESTEERING,1859,400765.000,00004000,54e2,13306;1859,400765.000000000,41.39056216912,-73.95331681992,-31.2982,-0.0006,-0.0014,-0.0017,-0.699277506,-1.844832295,269.465729518,INS_SOLUTION_GOOD*3c937680          
#INSPVAA,COM1,0,77.0,FINESTEERING,1859,400765.200,00004000,54e2,13306;1859,400765.200000000,41.39056216936,-73.95331681672,-31.2979,-0.0006,-0.0010,-0.0013,-0.698672453,-1.844452412,269.465010562,INS_SOLUTION_GOOD*5b1cd1c5          
#INSPVAA,COM1,0,77.0,FINESTEERING,1859,400765.400,00004000,54e2,13306;1859,400765.400000000,41.39056216955,-73.95331681360,-31.2976,-0.0010,0.0000,-0.0015,-0.699647185,-1.844316355,269.465002700,INS_SOLUTION_GOOD*2393b472           
#INSPVAA,COM1,0,77.5,FINESTEERING,1859,400765.600,00004000,54e2,13306;1859,400765.600000000,41.39056216966,-73.95331681056,-31.2972,-0.0017,-0.0006,-0.0017,-0.698720868,-1.844551668,269.465133113,INS_SOLUTION_GOOD*f335fb2b          
#INSPVAA,COM1,0,77.5,FINESTEERING,1859,400765.800,00004000,54e2,13306;1859,400765.800000000,41.39056216971,-73.95331680759,-31.2969,-0.0015,0.0001,-0.0028,-0.699385279,-1.844540094,269.465624424,INS_SOLUTION_GOOD*a3df02dc           
#INSPVAA,COM1,0,77.5,FINESTEERING,1859,400766.000,00004000,54e2,13306;1859,400766.000000000,41.39056216969,-73.95331680469,-31.2966,-0.0017,-0.0002,-0.0019,-0.699425418,-1.844311130,269.465842482,INS_SOLUTION_GOOD*a32cdc01          
#INSPVAA,COM1,0,77.5,FINESTEERING,1859,400766.200,00004000,54e2,13306;1859,400766.200000000,41.39056216962,-73.95331680185,-31.2964,-0.0015,-0.0000,-0.0022,-0.698584317,-1.844064759,269.468031499,INS_SOLUTION_GOOD*456902fe          
#INSPVAA,COM1,0,76.0,FINESTEERING,1859,400766.400,00004000,54e2,13306;1859,400766.400000000,41.39056216949,-73.95331679905,-31.2961,-0.0023,0.0003,-0.0000,-0.699482885,-1.844608840,269.468596307,INS_SOLUTION_GOOD*05272991           
#INSPVAA,COM1,0,76.0,FINESTEERING,1859,400766.600,00004000,54e2,13306;1859,400766.600000000,41.39056216928,-73.95331679627,-31.2958,-0.0027,0.0008,-0.0016,-0.698853997,-1.844036673,269.468158398,INS_SOLUTION_GOOD*887231dc           
#INSPVAA,COM1,0,76.0,FINESTEERING,1859,400766.800,00004000,54e2,13306;1859,400766.800000000,41.39056216898,-73.95331679351,-31.2955,-0.0026,0.0005,-0.0001,-0.700055812,-1.844884762,269.468776682,INS_SOLUTION_GOOD*d22ab8e7           
#INSPVAA,COM1,0,76.0,FINESTEERING,1859,400767.000,00004000,54e2,13306;1859,400767.000000000,41.39056216858,-73.95331679079,-31.2952,-0.0033,0.0002,-0.0011,-0.699276604,-1.844630016,269.469076681,INS_SOLUTION_GOOD*8ba0b28f           
#INSPVAA,COM1,0,76.0,FINESTEERING,1859,400767.200,00004000,54e2,13306;1859,400767.200000000,41.39056216814,-73.95331678811,-31.2950,-0.0022,-0.0003,0.0003,-0.698439621,-1.845139264,269.474260572,INS_SOLUTION_GOOD*dcbb05a0           
#INSPVAA,COM1,0,76.0,FINESTEERING,1859,400767.400,00004000,54e2,13306;1859,400767.400000000,41.39056216763,-73.95331678547,-31.2947,-0.0023,0.0000,-0.0008,-0.697875174,-1.844170817,269.474652525,INS_SOLUTION_GOOD*96d2fcda           
#INSPVAA,COM1,0,78.0,FINESTEERING,1859,400767.600,00004000,54e2,13306;1859,400767.600000000,41.39056216705,-73.95331678286,-31.2944,-0.0028,0.0002,0.0021,-0.697479725,-1.845258839,269.474403939,INS_SOLUTION_GOOD*6cd3c8b7            
#INSPVAA,COM1,0,78.0,FINESTEERING,1859,400767.800,00004000,54e2,13306;1859,400767.800000000,41.39056216640,-73.95331678027,-31.2941,-0.0033,0.0006,0.0011,-0.698205025,-1.845059194,269.474208085,INS_SOLUTION_GOOD*3edf99a9            
#INSPVAA,COM1,0,78.0,FINESTEERING,1859,400768.000,00004000,54e2,13306;1859,400768.000000000,41.39056216568,-73.95331677771,-31.2938,-0.0033,-0.0002,0.0013,-0.697607953,-1.845195016,269.473779933,INS_SOLUTION_GOOD*2b7e725f           
#INSPVAA,COM1,0,78.0,FINESTEERING,1859,400768.200,00004000,54e2,13306;1859,400768.200000000,41.39056216490,-73.95331677519,-31.2935,-0.0026,0.0002,-0.0001,-0.697079881,-1.844773850,269.483003382,INS_SOLUTION_GOOD*5e0a0260           
#INSPVAA,COM1,0,77.5,FINESTEERING,1859,400768.400,00004000,54e2,13306;1859,400768.400000000,41.39056216408,-73.95331677269,-31.2932,-0.0024,0.0004,0.0007,-0.696587963,-1.845169883,269.482893706,INS_SOLUTION_GOOD*8acfafaa            
#INSPVAA,COM1,0,77.5,FINESTEERING,1859,400768.600,00004000,54e2,13306;1859,400768.600000000,41.39056216320,-73.95331677022,-31.2929,-0.0025,0.0002,0.0007,-0.696021028,-1.845516739,269.482481726,INS_SOLUTION_GOOD*2677f09c            
#INSPVAA,COM1,0,77.5,FINESTEERING,1859,400768.800,00004000,54e2,13306;1859,400768.800000000,41.39056216229,-73.95331676776,-31.2926,-0.0028,0.0004,0.0006,-0.696584364,-1.846092164,269.481935676,INS_SOLUTION_GOOD*dc0a01bb            
#INSPVAA,COM1,0,77.5,FINESTEERING,1859,400769.000,00004000,54e2,13306;1859,400769.000000000,41.39056216132,-73.95331676530,-31.2923,-0.0035,0.0005,0.0024,-0.697630569,-1.844849996,269.481809196,INS_SOLUTION_GOOD*50885b80            
#INSPVAA,COM1,0,77.5,FINESTEERING,1859,400769.200,00004000,54e2,13306;1859,400769.200000000,41.39056216036,-73.95331676285,-31.2920,-0.0013,0.0009,0.0009,-0.692861616,-1.845523343,269.491255198,INS_SOLUTION_GOOD*0691d531            
#INSPVAA,COM1,0,77.0,FINESTEERING,1859,400769.400,00004000,54e2,13306;1859,400769.400000000,41.39056215938,-73.95331676040,-31.2917,-0.0000,0.0007,0.0008,-0.694908540,-1.846241737,269.499699273,INS_SOLUTION_GOOD*278c2396            
#INSPVAA,COM1,0,77.0,FINESTEERING,1859,400769.600,00004000,54e2,13306;1859,400769.600000000,41.39056215840,-73.95331675795,-31.2914,-0.0012,0.0006,0.0012,-0.698069908,-1.844160464,269.499801663,INS_SOLUTION_GOOD*bd60e5db            
#INSPVAA,COM1,0,77.0,FINESTEERING,1859,400769.800,00004000,54e2,13306;1859,400769.800000000,41.39056215743,-73.95331675547,-31.2911,-0.0021,0.0020,0.0010,-0.693759348,-1.845220154,269.491628340,INS_SOLUTION_GOOD*90e5987a            
#INSPVAA,COM1,0,77.0,FINESTEERING,1859,400770.000,00004000,54e2,13306;1859,400770.000000000,41.39056215646,-73.95331675299,-31.2908,-0.0002,0.0013,0.0016,-0.694079871,-1.847518864,269.495886393,INS_SOLUTION_GOOD*374e4022            
#INSPVAA,COM1,0,77.0,FINESTEERING,1859,400770.200,00004000,54e2,13306;1859,400770.200000000,41.39056215548,-73.95331675052,-31.2905,-0.0010,0.0000,0.0025,-0.697789712,-1.845066882,269.499817392,INS_SOLUTION_GOOD*220c53a2            
#INSPVAA,COM1,0,77.0,FINESTEERING,1859,400770.400,00004000,54e2,13306;1859,400770.400000000,41.39056215450,-73.95331674807,-31.2902,-0.0026,0.0005,0.0030,-0.694944391,-1.845714777,269.495564691,INS_SOLUTION_GOOD*269e1ff5            
#INSPVAA,COM1,0,77.5,FINESTEERING,1859,400770.600,00004000,54e2,13306;1859,400770.600000000,41.39056215350,-73.95331674564,-31.2899,-0.0020,-0.0002,0.0033,-0.693794145,-1.846440598,269.493850932,INS_SOLUTION_GOOD*1e30ff42           
#INSPVAA,COM1,0,77.5,FINESTEERING,1859,400770.800,00004000,54e2,13306;1859,400770.800000000,41.39056215247,-73.95331674325,-31.2895,-0.0027,-0.0004,0.0036,-0.695318055,-1.844803711,269.497277890,INS_SOLUTION_GOOD*94adc6a3           
#INSPVAA,COM1,0,77.5,FINESTEERING,1859,400771.000,00004000,54e2,13306;1859,400771.000000000,41.39056215139,-73.95331674092,-31.2892,-0.0037,-0.0006,0.0040,-0.696176510,-1.845366485,269.497223086,INS_SOLUTION_GOOD*2c7bba34           
**unlogall   
*notice that it excepted my input but it is still emptying a buffer (I assume)*
                                                                                                                                                                                                                                 <OK                                                                                                                                                                                                                                     
[COM1]#INSPVAA,COM1,0,77.5,FINESTEERING,1859,400771.200,00004000,54e2,13306;1859,400771.200000000,41.39056215030,-73.95331673862,-31.2888,-0.0023,0.0000,0.0027,-0.692442096,-1.845565688,269.510644424,INS_SOLUTION_GOOD*e1f0fa4c      
#INSPVAA,COM1,0,75.0,FINESTEERING,1859,400771.400,00004000,54e2,13306;1859,400771.400000000,41.39056214921,-73.95331673635,-31.2885,-0.0007,-0.0006,0.0046,-0.693020248,-1.845245929,269.510172321,INS_SOLUTION_GOOD*99fccb2d           
#INSPVAA,COM1,0,75.0,FINESTEERING,1859,400771.600,00004000,54e2,13306;1859,400771.600000000,41.39056214811,-73.95331673412,-31.2881,-0.0013,-0.0001,0.0043,-0.694533499,-1.844288630,269.511518262,INS_SOLUTION_GOOD*2c7a7e50           
#INSPVAA,COM1,0,75.0,FINESTEERING,1859,400771.800,00004000,54e2,13306;1859,400771.800000000,41.39056214701,-73.95331673194,-31.2878,-0.0002,-0.0005,0.0046,-0.693141553,-1.846342119,269.511454375,INS_SOLUTION_GOOD*9c0a433b           
#INSPVAA,COM1,0,75.0,FINESTEERING,1859,400772.000,00004000,54e2,13306;1859,400772.000000000,41.39056214594,-73.95331672979,-31.2874,-0.0002,-0.0009,0.0049,-0.693596117,-1.846525264,269.510524940,INS_SOLUTION_GOOD*1022fde0           
#INSPVAA,COM1,0,75.0,FINESTEERING,1859,400772.200,00004000,54e2,13306;1859,400772.200000000,41.39056214490,-73.95331672767,-31.2870,0.0010,-0.0009,0.0032,-0.693201250,-1.844752428,269.510966799,INS_SOLUTION_GOOD*17df90d2            
#INSPVAA,COM1,0,75.0,FINESTEERING,1859,400772.400,00004000,54e2,13306;1859,400772.400000000,41.39056214391,-73.95331672558,-31.2866,0.0011,-0.0003,0.0045,-0.693240038,-1.846444105,269.512454746,INS_SOLUTION_GOOD*8b4af94b            
#INSPVAA,COM1,0,76.5,FINESTEERING,1859,400772.600,00004000,54e2,13306;1859,400772.600000000,41.39056214297,-73.95331672354,-31.2862,0.0013,-0.0006,0.0059,-0.693726865,-1.846266120,269.512507962,INS_SOLUTION_GOOD*ec4e29a8            
#INSPVAA,COM1,0,76.5,FINESTEERING,1859,400772.800,00004000,54e2,13306;1859,400772.800000000,41.39056214207,-73.95331672153,-31.2858,0.0008,-0.0016,0.0071,-0.693069102,-1.845598761,269.511382665,INS_SOLUTION_GOOD*3b20cfce            
#INSPVAA,COM1,0,76.5,FINESTEERING,1859,400773.000,00004000,54e2,13306;1859,400773.000000000,41.39056214121,-73.95331671958,-31.2854,0.0008,-0.0011,0.0084,-0.693447972,-1.846587394,269.511366033,INS_SOLUTION_GOOD*4b14412c            
#INSPVAA,COM1,0,76.5,FINESTEERING,1859,400773.200,00004000,54e2,13306;1859,400773.200000000,41.39056206726,-73.95331652392,-31.2422,0.0018,-0.0012,0.0075,-0.692682073,-1.846858137,269.513384830,INS_SOLUTION_GOOD*9be53ce7            

* the longer i wait, the longer the buffer is. after running for roughly 100 seconds shown above, it have 11 extra messages. after 10 minutes there were 400 extra messages




        
