
<OK
[COM1]
<OK
[COM1]%RAWIMUSA,1815,405871.500;1815,405871.488526667,00000077,63977,5581,866,32,96,145*4ba45a13
#BESTGPSPOSA,COM1,0,81.5,FINESTEERING,1815,405871.500,00040000,8505,11526;SOL_COMPUTED,SINGLE,41.39075485837,-73.95365369320,34.1612,-32.2000,WGS84,2.0263,1.6510,3.3318,"",0.000,0.000,11,11,11,0,0,00,00,01*901075d8
%RAWIMUSA,1815,405872.000;1815,405871.988526667,00000077,63831,5537,984,52,161,151*d5ae35ea
#BESTGPSPOSA,COM1,0,81.5,FINESTEERING,1815,405872.000,00040000,8505,11526;SOL_COMPUTED,SINGLE,41.39075485448,-73.95365370339,34.1614,-32.2000,WGS84,2.0263,1.6510,3.3318,"",0.000,0.000,11,11,11,0,0,00,00,01*ab50b7e3
%RAWIMUSA,1815,405872.500;1815,405872.488526667,00000077,63807,5463,1034,46,10,38*06916591
#BESTGPSPOSA,COM1,0,80.5,FINESTEERING,1815,405872.500,00040000,8505,11526;SOL_COMPUTED,SINGLE,41.39075484408,-73.95365376001,34.1664,-32.2000,WGS84,2.0263,1.6509,3.3318,"",0.000,0.000,11,11,11,0,0,00,00,01*3cc51051
%RAWIMUSA,1815,405873.000;1815,405872.988526667,00000077,64030,5562,833,39,121,-128*c150a3c1
#BESTGPSPOSA,COM1,0,80.5,FINESTEERING,1815,405873.000,00040000,8505,11526;SOL_COMPUTED,SINGLE,41.39075483039,-73.95365367451,34.1679,-32.2000,WGS84,2.0263,1.6509,3.3319,"",0.000,0.000,11,11,11,0,0,00,00,01*d09f1818
%RAWIMUSA,1815,405873.500;1815,405873.488526667,00000077,64043,5322,871,31,116,-147*fc810653
#BESTGPSPOSA,COM1,0,71.5,FINESTEERING,1815,405873.500,00040000,8505,11526;SOL_COMPUTED,SINGLE,41.39075485217,-73.95365363303,34.1692,-32.2000,WGS84,2.0263,1.6509,3.3319,"",0.000,0.000,11,11,11,0,0,00,00,01*e1fde738
%RAWIMUSA,1815,405874.000;1815,405873.988526667,00000077,63839,5638,775,54,39,-170*6e798cae
#BESTGPSPOSA,COM1,0,71.5,FINESTEERING,1815,405874.000,00040000,8505,11526;SOL_COMPUTED,SINGLE,41.39075482561,-73.95365364006,34.1770,-32.2000,WGS84,2.0264,1.6510,3.3321,"",0.000,0.000,11,11,11,0,0,00,00,01*82ec9a37
%RAWIMUSA,1815,405874.500;1815,405874.488526667,00000077,64004,5737,899,37,82,-209*95f3e743
#BESTGPSPOSA,COM1,0,71.5,FINESTEERING,1815,405874.500,00040000,8505,11526;SOL_COMPUTED,SINGLE,41.39075485446,-73.95365362147,34.1735,-32.2000,WGS84,2.0264,1.6509,3.3321,"",0.000,0.000,11,11,11,0,0,00,00,01*181c0429
%RAWIMUSA,1815,405875.000;1815,405874.988526667,00000077,64363,5811,980,47,56,-312*2aafa324
#BESTGPSPOSA,COM1,0,72.5,FINESTEERING,1815,405875.000,00040000,8505,11526;SOL_COMPUTED,SINGLE,41.39075482814,-73.95365362924,34.1806,-32.2000,WGS84,2.0264,1.6509,3.3321,"",0.000,0.000,11,11,11,0,0,00,00,01*a0c284c1
%RAWIMUSA,1815,405875.500;1815,405875.488526667,00000077,64097,5570,873,28,182,-178*ea4d2a41
#BESTGPSPOSA,COM1,0,72.5,FINESTEERING,1815,405875.500,00040000,8505,11526;SOL_COMPUTED,SINGLE,41.39075485859,-73.95365364547,34.1871,-32.2000,WGS84,2.0264,1.6509,3.3321,"",0.000,0.000,11,11,11,0,0,00,00,01*335f72ce
%RAWIMUSA,1815,405876.000;1815,405875.988526667,00000077,64010,5601,986,48,223,-46*fa8e8d8b
#BESTGPSPOSA,COM1,0,78.5,FINESTEERING,1815,405876.000,00040000,8505,11526;SOL_COMPUTED,SINGLE,41.39075484852,-73.95365374498,34.1787,-32.2000,WGS84,2.0264,1.6509,3.3323,"",0.000,0.000,11,11,11,0,0,00,00,01*2a4ef846
%RAWIMUSA,1815,405876.500;1815,405876.488526667,00000077,64059,5611,831,38,453,-54*217eaed3
#BESTGPSPOSA,COM1,0,70.5,FINESTEERING,1815,405876.500,00040000,8505,11526;SOL_COMPUTED,SINGLE,41.39075489933,-73.95365366932,34.1782,-32.2000,WGS84,2.0264,1.6509,3.3322,"",0.000,0.000,11,11,11,0,0,00,00,01*3423b2df
%RAWIMUSA,1815,405877.000;1815,405876.988526667,00000077,64268,5529,927,39,279,61*ff1afa7f
#BESTGPSPOSA,COM1,0,70.5,FINESTEERING,1815,405877.000,00040000,8505,11526;SOL_COMPUTED,SINGLE,41.39075483392,-73.95365365570,34.1836,-32.2000,WGS84,2.0265,1.6509,3.3324,"",0.000,0.000,11,11,11,0,0,00,00,01*caa364c2
%RAWIMUSA,1815,405877.500;1815,405877.488526667,00000077,64288,5828,934,53,499,100*2755d93a
#BESTGPSPOSA,COM1,0,69.0,FINESTEERING,1815,405877.500,00040000,8505,11526;SOL_COMPUTED,SINGLE,41.39075489289,-73.95365357159,34.1945,-32.2000,WGS84,2.0265,1.6509,3.3325,"",0.000,0.000,11,11,11,0,0,00,00,01*24b5cfe3
%RAWIMUSA,1815,405878.000;1815,405877.988526667,00000077,64406,5845,1038,37,362,98*47168335
#BESTGPSPOSA,COM1,0,69.0,FINESTEERING,1815,405878.000,00040000,8505,11526;SOL_COMPUTED,SINGLE,41.39075484184,-73.95365365884,34.1869,-32.2000,WGS84,2.0266,1.6510,3.3326,"",0.000,0.000,11,11,11,0,0,00,00,01*9f89fb08
%RAWIMUSA,1815,405878.500;1815,405878.488526667,00000077,64222,5677,1041,30,394,124*e7da0c92
#BESTGPSPOSA,COM1,0,69.0,FINESTEERING,1815,405878.500,00040000,8505,11526;SOL_COMPUTED,SINGLE,41.39075485754,-73.95365364125,34.1944,-32.2000,WGS84,2.0266,1.6509,3.3326,"",0.000,0.000,11,11,11,0,0,00,00,01*bcba955e
%RAWIMUSA,1815,405879.000;1815,405878.988526667,00000077,64333,5822,875,32,84,350*fd90943b
#BESTGPSPOSA,COM1,0,76.0,FINESTEERING,1815,405879.000,00040000,8505,11526;SOL_COMPUTED,SINGLE,41.39075487103,-73.95365366679,34.1926,-32.2000,WGS84,2.0266,1.6509,3.3327,"",0.000,0.000,11,11,11,0,0,00,00,01*7f41574b
%RAWIMUSA,1815,405879.500;1815,405879.488526667,00000077,64311,5445,879,12,163,310*1572fb82
#BESTGPSPOSA,COM1,0,76.0,FINESTEERING,1815,405879.500,00040000,8505,11526;SOL_COMPUTED,SINGLE,41.39075489337,-73.95365363262,34.1889,-32.2000,WGS84,2.0266,1.6509,3.3326,"",0.000,0.000,11,11,11,0,0,00,00,01*26bb09f7
%RAWIMUSA,1815,405880.000;1815,405879.988526667,00000077,64285,5679,1024,10,-8,364*3c65a8d1
#BESTGPSPOSA,COM1,0,79.5,FINESTEERING,1815,405880.000,00040000,8505,11526;SOL_COMPUTED,SINGLE,41.39075487038,-73.95365373362,34.1839,-32.2000,WGS84,2.0267,1.6509,3.3328,"",0.000,0.000,11,11,11,0,0,00,00,01*fe7456cf
%RAWIMUSA,1815,405880.500;1815,405880.488526667,00000077,64251,5333,1166,14,81,299*4bd5a1a0
#BESTGPSPOSA,COM1,0,79.5,FINESTEERING,1815,405880.500,00040000,8505,11526;SOL_COMPUTED,SINGLE,41.39075490739,-73.95365362769,34.1925,-32.2000,WGS84,2.0266,1.6509,3.3327,"",0.000,0.000,11,11,11,0,0,00,00,01*c18dcef9
%RAWIMUSA,1815,405881.000;1815,405880.988526667,00000077,64133,5364,1043,26,-208,266*e958184d
#BESTGPSPOSA,COM1,0,70.5,FINESTEERING,1815,405881.000,00040000,8505,11526;SOL_COMPUTED,SINGLE,41.39075489875,-73.95365367490,34.1951,-32.2000,WGS84,2.0267,1.6509,3.3329,"",0.000,0.000,11,11,11,0,0,00,00,01*b62139c1
%RAWIMUSA,1815,405881.500;1815,405881.488526667,00000077,64298,5452,1170,28,-166,267*89c8c919
#BESTGPSPOSA,COM1,0,70.5,FINESTEERING,1815,405881.500,00040000,8505,11526;SOL_COMPUTED,SINGLE,41.39075489580,-73.95365364001,34.1959,-32.2000,WGS84,2.0266,1.6508,3.3328,"",0.000,0.000,11,11,11,0,0,00,00,01*1b7ae1c8
%RAWIMUSA,1815,405882.000;1815,405881.988526667,00000077,64046,5365,1233,17,-94,189*c661337d
#BESTGPSPOSA,COM1,0,70.5,FINESTEERING,1815,405882.000,00040000,8505,11526;SOL_COMPUTED,SINGLE,41.39075487078,-73.95365369466,34.1817,-32.2000,WGS84,2.0267,1.6509,3.3330,"",0.000,0.000,11,11,11,0,0,00,00,01*e554b839
%RAWIMUSA,1815,405882.500;1815,405882.488526667,00000077,63952,5273,924,25,-1,85*5c23dab6
#BESTGPSPOSA,COM1,0,75.0,FINESTEERING,1815,405882.500,00040000,8505,11526;SOL_COMPUTED,SINGLE,41.39075486342,-73.95365362596,34.1974,-32.2000,WGS84,2.0267,1.6508,3.3330,"",0.000,0.000,11,11,11,0,0,00,00,01*605e577e
%RAWIMUSA,1815,405883.000;1815,405882.988526667,00000077,64092,5375,1073,34,-91,114*7e0063c9
#BESTGPSPOSA,COM1,0,74.0,FINESTEERING,1815,405883.000,00040000,8505,11526;SOL_COMPUTED,SINGLE,41.39075482853,-73.95365368528,34.1892,-32.2000,WGS84,2.0268,1.6509,3.3331,"",0.000,0.000,11,11,11,0,0,00,00,01*4074d4a1
%RAWIMUSA,1815,405883.500;1815,405883.488526667,00000077,64120,5335,1002,20,-94,43*9f1545ab
#BESTGPSPOSA,COM1,0,74.0,FINESTEERING,1815,405883.500,00040000,8505,11526;SOL_COMPUTED,SINGLE,41.39075481776,-73.95365366927,34.1864,-32.2000,WGS84,2.0268,1.6509,3.3332,"",0.000,0.000,11,11,11,0,0,00,00,01*bca2693b
%RAWIMUSA,1815,405884.000;1815,405883.988526667,00000077,64017,5249,1147,4,-131,9*a2894f52
#BESTGPSPOSA,COM1,0,74.0,FINESTEERING,1815,405884.000,00040000,8505,11526;SOL_COMPUTED,SINGLE,41.39075482887,-73.95365375136,34.1849,-32.2000,WGS84,2.0269,1.6509,3.3334,"",0.000,0.000,11,11,11,0,0,00,00,01*b091de73
%RAWIMUSA,1815,405884.500;1815,405884.488526667,00000077,64052,5197,847,28,-153,-85*de792d4d
#BESTGPSPOSA,COM1,0,78.0,FINESTEERING,1815,405884.500,00040000,8505,11526;SOL_COMPUTED,SINGLE,41.39075492701,-73.95365368657,34.2007,-32.2000,WGS84,2.0269,1.6509,3.3333,"",0.000,0.000,11,11,11,0,0,00,00,01*d2031b85
%RAWIMUSA,1815,405885.000;1815,405884.988526667,00000077,64103,5225,1113,25,-168,-327*3e4752c6
#BESTGPSPOSA,COM1,0,78.0,FINESTEERING,1815,405885.000,00040000,8505,11526;SOL_COMPUTED,SINGLE,41.39075485287,-73.95365370993,34.1961,-32.2000,WGS84,2.0269,1.6509,3.3334,"",0.000,0.000,11,11,11,0,0,00,00,01*8a244399
%RAWIMUSA,1815,405885.500;1815,405885.488526667,00000077,64141,5390,1100,-1,-363,-223*06f07826
#BESTGPSPOSA,COM1,0,82.0,FINESTEERING,1815,405885.500,00040000,8505,11526;SOL_COMPUTED,SINGLE,41.39075486649,-73.95365366077,34.1980,-32.2000,WGS84,2.0268,1.6508,3.3334,"",0.000,0.000,11,11,11,0,0,00,00,01*4a78b7fa
%RAWIMUSA,1815,405886.000;1815,405885.988526667,00000077,64086,5310,931,-4,-131,-272*98aeadea
#BESTGPSPOSA,COM1,0,81.0,FINESTEERING,1815,405886.000,00040000,8505,11526;SOL_COMPUTED,SINGLE,41.39075486842,-73.95365371740,34.1934,-32.2000,WGS84,2.0269,1.6509,3.3335,"",0.000,0.000,11,11,11,0,0,00,00,01*99eb0b15
%RAWIMUSA,1815,405886.500;1815,405886.488526667,00000077,64028,5569,944,8,-71,-172*598ad8f9
#BESTGPSPOSA,COM1,0,81.0,FINESTEERING,1815,405886.500,00040000,8505,11526;SOL_COMPUTED,SINGLE,41.39075492771,-73.95365359999,34.2086,-32.2000,WGS84,2.0269,1.6508,3.3335,"",0.000,0.000,11,11,11,0,0,00,00,01*3476883e
%RAWIMUSA,1815,405887.000;1815,405886.988526667,00000077,64305,5557,1128,10,-194,-130*25be7911
#BESTGPSPOSA,COM1,0,77.5,FINESTEERING,1815,405887.000,00040000,8505,11526;SOL_COMPUTED,SINGLE,41.39075487613,-73.95365363875,34.2000,-32.2000,WGS84,2.0270,1.6509,3.3336,"",0.000,0.000,11,11,11,0,0,00,00,01*33745b6f
%RAWIMUSA,1815,405887.500;1815,405887.488526667,00000077,64337,5596,1018,21,-271,-145*d97e5887
#BESTGPSPOSA,COM1,0,77.5,FINESTEERING,1815,405887.500,00040000,8505,11526;SOL_COMPUTED,SINGLE,41.39075491975,-73.95365359371,34.2080,-32.2000,WGS84,2.0269,1.6508,3.3336,"",0.000,0.000,11,11,11,0,0,00,00,01*a068e17b
%RAWIMUSA,1815,405888.000;1815,405887.988526667,00000077,64401,5615,1171,-5,-196,-100*3114518a
#BESTGPSPOSA,COM1,0,77.5,FINESTEERING,1815,405888.000,00040000,8505,11526;SOL_COMPUTED,SINGLE,41.39075487728,-73.95365368240,34.2054,-32.2000,WGS84,2.0270,1.6509,3.3337,"",0.000,0.000,11,11,11,0,0,00,00,01*6d153900
%RAWIMUSA,1815,405888.500;1815,405888.488526667,00000077,64228,5555,1143,9,-288,0*a1d801b3
#BESTGPSPOSA,COM1,0,78.5,FINESTEERING,1815,405888.500,00040000,8505,11526;SOL_COMPUTED,SINGLE,41.39075488721,-73.95365366178,34.2159,-32.2000,WGS84,2.0270,1.6508,3.3337,"",0.000,0.000,11,11,11,0,0,00,00,01*0fb0faa1
%RAWIMUSA,1815,405889.000;1815,405888.988526667,00000077,64198,5604,979,5,-330,3*c9b91ac9
#BESTGPSPOSA,COM1,0,78.0,FINESTEERING,1815,405889.000,00040000,8505,11526;SOL_COMPUTED,SINGLE,41.39075492551,-73.95365371405,34.2006,-32.2000,WGS84,2.0271,1.6509,3.3339,"",0.000,0.000,11,11,11,0,0,00,00,01*369cf3d6
%RAWIMUSA,1815,405889.500;1815,405889.488526667,00000077,64197,5543,790,15,-243,85*d1d190ee
#BESTGPSPOSA,COM1,0,78.0,FINESTEERING,1815,405889.500,00040000,8505,11526;SOL_COMPUTED,SINGLE,41.39075491155,-73.95365364882,34.2093,-32.2000,WGS84,2.0271,1.6509,3.3339,"",0.000,0.000,11,11,11,0,0,00,00,01*dae81229
%RAWIMUSA,1815,405890.000;1815,405889.988526667,00000077,64355,5585,1108,6,-356,214*4cf04ca9
#BESTGPSPOSA,COM1,0,78.0,FINESTEERING,1815,405890.000,00040000,8505,11526;SOL_COMPUTED,SINGLE,41.39075487424,-73.95365367699,34.2000,-32.2000,WGS84,2.0271,1.6509,3.3340,"",0.000,0.000,11,11,11,0,0,00,00,01*4888e7a3
%RAWIMUSA,1815,405890.500;1815,405890.488526667,00000077,64208,5597,947,5,-377,320*03ff6a61
#BESTGPSPOSA,COM1,0,76.0,FINESTEERING,1815,405890.500,00040000,8505,11526;SOL_COMPUTED,SINGLE,41.39075485244,-73.95365364898,34.2076,-32.2000,WGS84,2.0271,1.6508,3.3339,"",0.000,0.000,11,11,11,0,0,00,00,01*3c63284e
%RAWIMUSA,1815,405891.000;1815,405890.988526667,00000077,64213,5397,1074,6,-426,343*3f9e8a2f
#BESTGPSPOSA,COM1,0,76.0,FINESTEERING,1815,405891.000,00040000,8505,11526;SOL_COMPUTED,SINGLE,41.39075480769,-73.95365372064,34.1945,-32.2000,WGS84,2.0272,1.6509,3.3343,"",0.000,0.000,11,11,11,0,0,00,00,01*4ed607db
%RAWIMUSA,1815,405891.500;1815,405891.488526667,00000077,63978,5437,836,36,-399,397*55b051e6
#BESTGPSPOSA,COM1,0,72.0,FINESTEERING,1815,405891.500,00040000,8505,11526;SOL_COMPUTED,SINGLE,41.39075485650,-73.95365364079,34.2018,-32.2000,WGS84,2.0273,1.6510,3.3344,"",0.000,0.000,11,11,11,0,0,00,00,01*185e0938
%RAWIMUSA,1815,405892.000;1815,405891.988526667,00000077,63847,5187,892,3,-308,232*f2262f66
#BESTGPSPOSA,COM1,0,72.0,FINESTEERING,1815,405892.000,00040000,8505,11526;SOL_COMPUTED,SINGLE,41.39075482430,-73.95365376962,34.1894,-32.2000,WGS84,2.0272,1.6508,3.3342,"",0.000,0.000,11,11,11,0,0,00,00,01*99b72358
%RAWIMUSA,1815,405892.500;1815,405892.488526667,00000077,63960,5174,978,12,-223,242*12567c1a
#BESTGPSPOSA,COM1,0,72.0,FINESTEERING,1815,405892.500,00040000,8505,11526;SOL_COMPUTED,SINGLE,41.39075482736,-73.95365374711,34.1918,-32.2000,WGS84,2.0272,1.6508,3.3342,"",0.000,0.000,11,11,11,0,0,00,00,01*16f0c950
%RAWIMUSA,1815,405893.000;1815,405892.988526667,00000077,63839,5223,986,19,-235,154*7e380360
#BESTGPSPOSA,COM1,0,73.5,FINESTEERING,1815,405893.000,00040000,8505,11526;SOL_COMPUTED,SINGLE,41.39075481620,-73.95365380926,34.1815,-32.2000,WGS84,2.0273,1.6509,3.3344,"",0.000,0.000,11,11,11,0,0,00,00,01*3a8db4e0
%RAWIMUSA,1815,405893.500;1815,405893.488526667,00000077,63963,5407,854,15,-249,98*287eee64
#BESTGPSPOSA,COM1,0,72.5,FINESTEERING,1815,405893.500,00040000,8505,11526;SOL_COMPUTED,SINGLE,41.39075483030,-73.95365372312,34.1967,-32.2000,WGS84,2.0273,1.6508,3.3344,"",0.000,0.000,11,11,11,0,0,00,00,01*b7a9f621
%RAWIMUSA,1815,405894.000;1815,405893.988526667,00000077,63644,5237,784,6,-350,115*8ad1bff8
#BESTGPSPOSA,COM1,0,72.5,FINESTEERING,1815,405894.000,00040000,8505,11526;SOL_COMPUTED,SINGLE,41.39075483371,-73.95365375926,34.1859,-32.2000,WGS84,2.0273,1.6508,3.3345,"",0.000,0.000,11,11,11,0,0,00,00,01*4ff072d4
%RAWIMUSA,1815,405894.500;1815,405894.488526667,00000077,63704,5346,792,-1,-33,-39*23055404
#BESTGPSPOSA,COM1,0,72.5,FINESTEERING,1815,405894.500,00040000,8505,11526;SOL_COMPUTED,SINGLE,41.39075487386,-73.95365373700,34.1973,-32.2000,WGS84,2.0273,1.6508,3.3345,"",0.000,0.000,11,11,11,0,0,00,00,01*fa66e8d5
%RAWIMUSA,1815,405895.000;1815,405894.988526667,00000077,63820,5205,906,-1,-218,-44*40603448
#BESTGPSPOSA,COM1,0,75.5,FINESTEERING,1815,405895.000,00040000,8505,11526;SOL_COMPUTED,SINGLE,41.39075483210,-73.95365377883,34.1934,-32.2000,WGS84,2.0273,1.6508,3.3346,"",0.000,0.000,11,11,11,0,0,00,00,01*c33474e1
%RAWIMUSA,1815,405895.500;1815,405895.488526667,00000077,63928,5145,871,-10,-109,-264*b0cf6489
#BESTGPSPOSA,COM1,0,73.5,FINESTEERING,1815,405895.500,00040000,8505,11526;SOL_COMPUTED,SINGLE,41.39075481421,-73.95365376515,34.2038,-32.2000,WGS84,2.0273,1.6508,3.3346,"",0.000,0.000,11,11,11,0,0,00,00,01*99078440
%RAWIMUSA,1815,405896.000;1815,405895.988526667,00000077,64060,5297,959,-10,-40,-317*dd0e03fe
#BESTGPSPOSA,COM1,0,73.5,FINESTEERING,1815,405896.000,00040000,8505,11526;SOL_COMPUTED,SINGLE,41.39075484197,-73.95365379742,34.2026,-32.2000,WGS84,2.0274,1.6508,3.3348,"",0.000,0.000,11,11,11,0,0,00,00,01*5246423e
%RAWIMUSA,1815,405896.500;1815,405896.488526667,00000077,63925,5163,687,-10,-234,-260*2485d928
#BESTGPSPOSA,COM1,0,73.5,FINESTEERING,1815,405896.500,00040000,8505,11526;SOL_COMPUTED,SINGLE,41.39075486386,-73.95365375815,34.1993,-32.2000,WGS84,2.0274,1.6508,3.3347,"",0.000,0.000,11,11,11,0,0,00,00,01*0a8a0adb
%RAWIMUSA,1815,405897.000;1815,405896.988526667,00000077,64093,5469,710,-15,-232,-199*247a829b
#BESTGPSPOSA,COM1,0,79.0,FINESTEERING,1815,405897.000,00040000,8505,11526;SOL_COMPUTED,SINGLE,41.39075483668,-73.95365377871,34.2028,-32.2000,WGS84,2.0274,1.6508,3.3349,"",0.000,0.000,11,11,11,0,0,00,00,01*7f85d056
%RAWIMUSA,1815,405897.500;1815,405897.488526667,00000077,64105,5411,692,-18,99,-112*281f849c
#BESTGPSPOSA,COM1,0,79.0,FINESTEERING,1815,405897.500,00040000,8505,11526;SOL_COMPUTED,SINGLE,41.39075483785,-73.95365370223,34.2121,-32.2000,WGS84,2.0274,1.6508,3.3348,"",0.000,0.000,11,11,11,0,0,00,00,01*4d136406
%RAWIMUSA,1815,405898.000;1815,405897.988526667,00000077,64063,5389,928,-13,140,-170*4064457e
#BESTGPSPOSA,COM1,0,82.0,FINESTEERING,1815,405898.000,00040000,8505,11526;SOL_COMPUTED,SINGLE,41.39075484991,-73.95365371025,34.2110,-32.2000,WGS84,2.0275,1.6508,3.3350,"",0.000,0.000,11,11,11,0,0,00,00,01*f4434ba5
%RAWIMUSA,1815,405898.500;1815,405898.488526667,00000077,64155,5254,892,2,-20,-9*dd36a1c3
#BESTGPSPOSA,COM1,0,74.0,FINESTEERING,1815,405898.500,00040000,8505,11526;SOL_COMPUTED,SINGLE,41.39075489131,-73.95365370455,34.2116,-32.2000,WGS84,2.0274,1.6508,3.3349,"",0.000,0.000,11,11,11,0,0,00,00,01*159c7155
%RAWIMUSA,1815,405899.000;1815,405898.988526667,00000077,64166,5392,926,-16,-119,85*67d63373
#BESTGPSPOSA,COM1,0,74.0,FINESTEERING,1815,405899.000,00040000,8505,11526;SOL_COMPUTED,SINGLE,41.39075488277,-73.95365370444,34.2169,-32.2000,WGS84,2.0275,1.6508,3.3350,"",0.000,0.000,11,11,11,0,0,00,00,01*81fb6a84
%RAWIMUSA,1815,405899.500;1815,405899.488526667,00000077,64080,5411,898,-20,145,66*b1863624
#BESTGPSPOSA,COM1,0,74.0,FINESTEERING,1815,405899.500,00040000,8505,11526;SOL_COMPUTED,SINGLE,41.39075486766,-73.95365367868,34.2186,-32.2000,WGS84,2.0275,1.6508,3.3351,"",0.000,0.000,11,11,11,0,0,00,00,01*80625524
%RAWIMUSA,1815,405900.000;1815,405899.988526667,00000077,64327,5438,1000,-7,78,154*ac329917
#BESTGPSPOSA,COM1,0,74.0,FINESTEERING,1815,405900.000,00040000,8505,11526;SOL_COMPUTED,SINGLE,41.39075485598,-73.95365369063,34.2177,-32.2000,WGS84,2.0275,1.6508,3.3352,"",0.000,0.000,11,11,11,0,0,00,00,01*567eec88
%RAWIMUSA,1815,405900.500;1815,405900.488526667,00000077,63973,5236,858,-26,111,351*d31d2c00
#BESTGPSPOSA,COM1,0,76.5,FINESTEERING,1815,405900.500,00040000,8505,11526;SOL_COMPUTED,SINGLE,41.39075483824,-73.95365369987,34.2153,-32.2000,WGS84,2.0275,1.6508,3.3352,"",0.000,0.000,11,11,11,0,0,00,00,01*2dcec2f4
%RAWIMUSA,1815,405901.000;1815,405900.988526667,00000077,64029,5388,770,-29,96,310*38f14c22
#BESTGPSPOSA,COM1,0,75.5,FINESTEERING,1815,405901.000,00040000,8505,11526;SOL_COMPUTED,SINGLE,41.39075481617,-73.95365373769,34.2066,-32.2000,WGS84,2.0277,1.6509,3.3355,"",0.000,0.000,11,11,11,0,0,00,00,01*bee9c9e0
%RAWIMUSA,1815,405901.500;1815,405901.488526667,00000077,63822,5112,827,-25,3,316*4480ebda
#BESTGPSPOSA,COM1,0,75.5,FINESTEERING,1815,405901.500,00040000,8505,11526;SOL_COMPUTED,SINGLE,41.39075488364,-73.95365367376,34.2206,-32.2000,WGS84,2.0277,1.6509,3.3355,"",0.000,0.000,11,11,11,0,0,00,00,01*4672bc87
%RAWIMUSA,1815,405902.000;1815,405901.988526667,00000077,63939,5192,982,-11,76,194*91dcd39c
#BESTGPSPOSA,COM1,0,74.5,FINESTEERING,1815,405902.000,00040000,8505,11526;SOL_COMPUTED,SINGLE,41.39075487387,-73.95365373249,34.2159,-32.2000,WGS84,2.0277,1.6508,3.3355,"",0.000,0.000,11,11,11,0,0,00,00,01*9bbb2996
%RAWIMUSA,1815,405902.500;1815,405902.488526667,00000077,63810,5045,833,-35,211,177*1363a8d4
#BESTGPSPOSA,COM1,0,74.5,FINESTEERING,1815,405902.500,00040000,8505,11526;SOL_COMPUTED,SINGLE,41.39075486738,-73.95365363867,34.2201,-32.2000,WGS84,2.0277,1.6508,3.3356,"",0.000,0.000,11,11,11,0,0,00,00,01*92622dd3
%RAWIMUSA,1815,405903.000;1815,405902.988526667,00000077,63967,5039,825,-18,286,44*05f0859f
#BESTGPSPOSA,COM1,0,74.5,FINESTEERING,1815,405903.000,00040000,8505,11526;SOL_COMPUTED,SINGLE,41.39075485403,-73.95365363770,34.2171,-32.2000,WGS84,2.0277,1.6508,3.3356,"",0.000,0.000,11,11,11,0,0,00,00,01*7dd90047
%RAWIMUSA,1815,405903.500;1815,405903.488526667,00000077,63887,4951,924,-23,288,95*cec22842
#BESTGPSPOSA,COM1,0,82.0,FINESTEERING,1815,405903.500,00040000,8505,11526;SOL_COMPUTED,SINGLE,41.39075488313,-73.95365361222,34.2213,-32.2000,WGS84,2.0278,1.6509,3.3358,"",0.000,0.000,11,11,11,0,0,00,00,01*3869d89b
%RAWIMUSA,1815,405904.000;1815,405903.988526667,00000077,63909,4970,954,-23,158,-160*feb94229
#BESTGPSPOSA,COM1,0,80.5,FINESTEERING,1815,405904.000,00040000,8505,11526;SOL_COMPUTED,SINGLE,41.39075486219,-73.95365362464,34.2151,-32.2000,WGS84,2.0278,1.6509,3.3359,"",0.000,0.000,11,11,11,0,0,00,00,01*c5c31a54
%RAWIMUSA,1815,405904.500;1815,405904.488526667,00000077,63857,4963,939,-34,144,-254*8a250986
#BESTGPSPOSA,COM1,0,80.5,FINESTEERING,1815,405904.500,00040000,8505,11526;SOL_COMPUTED,SINGLE,41.39075486475,-73.95365361326,34.2248,-32.2000,WGS84,2.0278,1.6508,3.3358,"",0.000,0.000,11,11,11,0,0,00,00,01*2c647fca
%RAWIMUSA,1815,405905.000;1815,405904.988526667,00000077,63964,5078,831,-23,116,-399*a1b16d97
#BESTGPSPOSA,COM1,0,80.5,FINESTEERING,1815,405905.000,00040000,8505,11526;SOL_COMPUTED,SINGLE,41.39075482270,-73.95365360904,34.2204,-32.2000,WGS84,2.0279,1.6508,3.3360,"",0.000,0.000,11,11,11,0,0,00,00,01*712df812
%RAWIMUSA,1815,405905.500;1815,405905.488526667,00000077,63929,5194,1025,-94,290,-456*36258631
#BESTGPSPOSA,COM1,0,81.0,FINESTEERING,1815,405905.500,00040000,8505,11526;SOL_COMPUTED,SINGLE,41.39075484255,-73.95365364919,34.2194,-32.2000,WGS84,2.0279,1.6508,3.3360,"",0.000,0.000,11,11,11,0,0,00,00,01*fbd5166c
%RAWIMUSA,1815,405906.000;1815,405905.988526667,00000077,63993,5281,872,-65,321,-350*c2ab03f0
#BESTGPSPOSA,COM1,0,78.5,FINESTEERING,1815,405906.000,00040000,8505,11526;SOL_COMPUTED,SINGLE,41.39075487108,-73.95365372985,34.2045,-32.2000,WGS84,2.0279,1.6508,3.3360,"",0.000,0.000,11,11,11,0,0,00,00,01*678f965f
%RAWIMUSA,1815,405906.500;1815,405906.488526667,00000077,64286,5075,1024,17,351,-166*d700d831
#BESTGPSPOSA,COM1,0,78.5,FINESTEERING,1815,405906.500,00040000,8505,11526;SOL_COMPUTED,SINGLE,41.39075496192,-73.95365359545,34.2137,-32.2000,WGS84,2.0279,1.6508,3.3360,"",0.000,0.000,11,11,11,0,0,00,00,01*27e681b4
%RAWIMUSA,1815,405907.000;1815,405906.988526667,00000077,64233,5368,972,-50,360,-122*843d68a8
#BESTGPSPOSA,COM1,0,78.5,FINESTEERING,1815,405907.000,00040000,8505,11526;SOL_COMPUTED,SINGLE,41.39075491386,-73.95365363418,34.2073,-32.2000,WGS84,2.0279,1.6508,3.3361,"",0.000,0.000,11,11,11,0,0,00,00,01*63b2f6bd
%RAWIMUSA,1815,405907.500;1815,405907.488526667,00000077,64430,5559,1057,-17,289,-79*be3644ad
#BESTGPSPOSA,COM1,0,79.0,FINESTEERING,1815,405907.500,00040000,8505,11526;SOL_COMPUTED,SINGLE,41.39075492932,-73.95365361258,34.2226,-32.2000,WGS84,2.0279,1.6507,3.3361,"",0.000,0.000,11,11,11,0,0,00,00,01*558f0b1f
%RAWIMUSA,1815,405908.000;1815,405907.988526667,00000077,64469,5533,1010,-36,170,76*5188ff45
#BESTGPSPOSA,COM1,0,75.5,FINESTEERING,1815,405908.000,00040000,8505,11526;SOL_COMPUTED,SINGLE,41.39075491181,-73.95365358678,34.2191,-32.2000,WGS84,2.0279,1.6508,3.3362,"",0.000,0.000,11,11,11,0,0,00,00,01*0d663853
%RAWIMUSA,1815,405908.500;1815,405908.488526667,00000077,64351,5301,883,-56,285,149*98a54481
#BESTGPSPOSA,COM1,0,75.5,FINESTEERING,1815,405908.500,00040000,8505,11526;SOL_COMPUTED,SINGLE,41.39075495440,-73.95365357118,34.2315,-32.2000,WGS84,2.0279,1.6507,3.3362,"",0.000,0.000,11,11,11,0,0,00,00,01*9e5f2c86
%RAWIMUSA,1815,405909.000;1815,405908.988526667,00000077,64245,4957,924,-53,381,251*c23681d3
#BESTGPSPOSA,COM1,0,75.5,FINESTEERING,1815,405909.000,00040000,8505,11526;SOL_COMPUTED,SINGLE,41.39075490224,-73.95365356716,34.2321,-32.2000,WGS84,2.0280,1.6508,3.3363,"",0.000,0.000,11,11,11,0,0,00,00,01*e4f859dc
%RAWIMUSA,1815,405909.500;1815,405909.488526667,00000077,64224,5092,1107,-52,203,201*61aefdd6
#BESTGPSPOSA,COM1,0,75.5,FINESTEERING,1815,405909.500,00040000,8505,11526;SOL_COMPUTED,SINGLE,41.39075492358,-73.95365353837,34.2387,-32.2000,WGS84,2.0279,1.6507,3.3363,"",0.000,0.000,11,11,11,0,0,00,00,01*b7174d09
%RAWIMUSA,1815,405910.000;1815,405909.988526667,00000077,64197,5094,1018,-39,130,201*675d06d3
#BESTGPSPOSA,COM1,0,78.0,FINESTEERING,1815,405910.000,00040000,8505,11526;SOL_COMPUTED,SINGLE,41.39075485759,-73.95365356952,34.2214,-32.2000,WGS84,2.0280,1.6508,3.3364,"",0.000,0.000,11,11,11,0,0,00,00,01*66d7a40a
%RAWIMUSA,1815,405910.500;1815,405910.488526667,00000077,64113,5192,1004,-37,319,56*2966ed70
#BESTGPSPOSA,COM1,0,77.5,FINESTEERING,1815,405910.500,00040000,8505,11526;SOL_COMPUTED,SINGLE,41.39075484650,-73.95365350709,34.2338,-32.2000,WGS84,2.0280,1.6507,3.3364,"",0.000,0.000,11,11,11,0,0,00,00,01*f01102fe
%RAWIMUSA,1815,405911.000;1815,405910.988526667,00000077,64044,4890,1018,-41,308,-21*d1a5731f
#BESTGPSPOSA,COM1,0,77.5,FINESTEERING,1815,405911.000,00040000,8505,11526;SOL_COMPUTED,SINGLE,41.39075487004,-73.95365353725,34.2402,-32.2000,WGS84,2.0281,1.6507,3.3365,"",0.000,0.000,11,11,11,0,0,00,00,01*249efbaf
%RAWIMUSA,1815,405911.500;1815,405911.488526667,00000077,64006,5048,1008,-25,221,-118*803f3061
#BESTGPSPOSA,COM1,0,77.0,FINESTEERING,1815,405911.500,00040000,8505,11526;SOL_COMPUTED,SINGLE,41.39075488774,-73.95365361340,34.2328,-32.2000,WGS84,2.0281,1.6507,3.3366,"",0.000,0.000,11,11,11,0,0,00,00,01*7cbcb1eb
%RAWIMUSA,1815,405912.000;1815,405911.988526667,00000077,64143,4971,1158,-47,154,-221*eb2d9052
#BESTGPSPOSA,COM1,0,77.0,FINESTEERING,1815,405912.000,00040000,8505,11526;SOL_COMPUTED,SINGLE,41.39075488635,-73.95365351801,34.2450,-32.2000,WGS84,2.0281,1.6507,3.3367,"",0.000,0.000,11,11,11,0,0,00,00,01*cd8f8b0e
%RAWIMUSA,1815,405912.500;1815,405912.488526667,00000077,64318,4976,1044,-29,125,-389*393b1e96
#BESTGPSPOSA,COM1,0,76.5,FINESTEERING,1815,405912.500,00040000,8505,11526;SOL_COMPUTED,SINGLE,41.39075488740,-73.95365359098,34.2379,-32.2000,WGS84,2.0281,1.6507,3.3367,"",0.000,0.000,11,11,11,0,0,00,00,01*ef7366c2
%RAWIMUSA,1815,405913.000;1815,405912.988526667,00000077,64238,5381,1116,-49,61,-372*e5e5deec
#BESTGPSPOSA,COM1,0,76.5,FINESTEERING,1815,405913.000,00040000,8505,11526;SOL_COMPUTED,SINGLE,41.39075485873,-73.95365359325,34.2251,-32.2000,WGS84,2.0282,1.6508,3.3368,"",0.000,0.000,11,11,11,0,0,00,00,01*bfca02c7
%RAWIMUSA,1815,405913.500;1815,405913.488526667,00000077,64252,5298,911,-52,36,-305*8e259d79
#BESTGPSPOSA,COM1,0,76.5,FINESTEERING,1815,405913.500,00040000,8505,11526;SOL_COMPUTED,SINGLE,41.39075486610,-73.95365358767,34.2357,-32.2000,WGS84,2.0282,1.6507,3.3368,"",0.000,0.000,11,11,11,0,0,00,00,01*892896ef
%RAWIMUSA,1815,405914.000;1815,405913.988526667,00000077,64363,5152,978,-60,257,-282*6f59a421
#BESTGPSPOSA,COM1,0,79.5,FINESTEERING,1815,405914.000,00040000,8505,11526;SOL_COMPUTED,SINGLE,41.39075483231,-73.95365362227,34.2252,-32.2000,WGS84,2.0282,1.6507,3.3369,"",0.000,0.000,11,11,11,0,0,00,00,01*19e98cac
%RAWIMUSA,1815,405914.500;1815,405914.488526667,00000077,64566,5287,1251,-37,163,-213*1eedc288
#BESTGPSPOSA,COM1,0,79.5,FINESTEERING,1815,405914.500,00040000,8505,11526;SOL_COMPUTED,SINGLE,41.39075487023,-73.95365356941,34.2339,-32.2000,WGS84,2.0282,1.6507,3.3370,"",0.000,0.000,11,11,11,0,0,00,00,01*8e582441
%RAWIMUSA,1815,405915.000;1815,405914.988526667,00000077,64556,5374,1185,-34,357,-160*d33f37e8
#BESTGPSPOSA,COM1,0,79.5,FINESTEERING,1815,405915.000,00040000,8505,11526;SOL_COMPUTED,SINGLE,41.39075486163,-73.95365358794,34.2315,-32.2000,WGS84,2.0283,1.6507,3.3370,"",0.000,0.000,11,11,11,0,0,00,00,01*0f72adcb
%RAWIMUSA,1815,405915.500;1815,405915.488526667,00000077,64369,5586,964,-65,11,12*bb47bf5f
#BESTGPSPOSA,COM1,0,79.5,FINESTEERING,1815,405915.500,00040000,8505,11526;SOL_COMPUTED,SINGLE,41.39075492021,-73.95365354760,34.2309,-32.2000,WGS84,2.0282,1.6507,3.3370,"",0.000,0.000,11,11,11,0,0,00,00,01*f31bfde0
%RAWIMUSA,1815,405916.000;1815,405915.988526667,00000077,64290,5310,1032,-37,141,198*cb5a6ffc
#BESTGPSPOSA,COM1,0,81.5,FINESTEERING,1815,405916.000,00040000,8505,11526;SOL_COMPUTED,SINGLE,41.39075489362,-73.95365361878,34.2228,-32.2000,WGS84,2.0283,1.6507,3.3371,"",0.000,0.000,11,11,11,0,0,00,00,01*f6fba94a
%RAWIMUSA,1815,405916.500;1815,405916.488526667,00000077,64440,5155,995,-55,236,151*7280d88b
#BESTGPSPOSA,COM1,0,80.0,FINESTEERING,1815,405916.500,00040000,8505,11526;SOL_COMPUTED,SINGLE,41.39075496208,-73.95365357654,34.2242,-32.2000,WGS84,2.0282,1.6507,3.3371,"",0.000,0.000,11,11,11,0,0,00,00,01*bffcf8ca
%RAWIMUSA,1815,405917.000;1815,405916.988526667,00000077,64510,5030,1086,-39,187,160*f37fd7ef
#BESTGPSPOSA,COM1,0,80.0,FINESTEERING,1815,405917.000,00040000,8505,11526;SOL_COMPUTED,SINGLE,41.39075490059,-73.95365367502,34.2048,-32.2000,WGS84,2.0283,1.6507,3.3373,"",0.000,0.000,11,11,11,0,0,00,00,01*cd577b11
%RAWIMUSA,1815,405917.500;1815,405917.488526667,00000077,64359,5156,1051,-51,73,111*fd0d77d7
#BESTGPSPOSA,COM1,0,77.0,FINESTEERING,1815,405917.500,00040000,8505,11526;SOL_COMPUTED,SINGLE,41.39075491498,-73.95365360241,34.2192,-32.2000,WGS84,2.0283,1.6507,3.3373,"",0.000,0.000,11,11,11,0,0,00,00,01*8b9b75e2
%RAWIMUSA,1815,405918.000;1815,405917.988526667,00000077,64340,4951,1291,-43,166,86*5dddcd90
#BESTGPSPOSA,COM1,0,77.0,FINESTEERING,1815,405918.000,00040000,8505,11526;SOL_COMPUTED,SINGLE,41.39075491388,-73.95365359790,34.2068,-32.2000,WGS84,2.0284,1.6507,3.3374,"",0.000,0.000,11,11,11,0,0,00,00,01*8a87d29e
%RAWIMUSA,1815,405918.500;1815,405918.488526667,00000077,64337,5143,1111,-54,175,-74*f6c18e47
#BESTGPSPOSA,COM1,0,77.0,FINESTEERING,1815,405918.500,00040000,8505,11526;SOL_COMPUTED,SINGLE,41.39075496862,-73.95365365441,34.2134,-32.2000,WGS84,2.0284,1.6507,3.3374,"",0.000,0.000,11,11,11,0,0,00,00,01*02d5dc07
%RAWIMUSA,1815,405919.000;1815,405918.988526667,00000077,64261,4895,1273,-52,-102,-152*c7b10c82
#BESTGPSPOSA,COM1,0,77.0,FINESTEERING,1815,405919.000,00040000,8505,11526;SOL_COMPUTED,SINGLE,41.39075492277,-73.95365365892,34.2074,-32.2000,WGS84,2.0284,1.6507,3.3375,"",0.000,0.000,11,11,11,0,0,00,00,01*2a68c2e1
%RAWIMUSA,1815,405919.500;1815,405919.488526667,00000077,64220,4945,1035,-59,-35,-257*a9fe7d7a
#BESTGPSPOSA,COM1,0,78.5,FINESTEERING,1815,405919.500,00040000,8505,11526;SOL_COMPUTED,SINGLE,41.39075498602,-73.95365364692,34.2123,-32.2000,WGS84,2.0284,1.6507,3.3375,"",0.000,0.000,11,11,11,0,0,00,00,01*bbf408aa
%RAWIMUSA,1815,405920.000;1815,405919.988526667,00000077,64220,5007,1274,-51,46,-338*7f9a905e
#BESTGPSPOSA,COM1,0,78.5,FINESTEERING,1815,405920.000,00040000,8505,11526;SOL_COMPUTED,SINGLE,41.39075496871,-73.95365370794,34.2101,-32.2000,WGS84,2.0285,1.6507,3.3376,"",0.000,0.000,11,11,11,0,0,00,00,01*1b3c808c
%RAWIMUSA,1815,405920.500;1815,405920.488526667,00000077,64389,5106,1217,-60,107,-367*579ac564
#BESTGPSPOSA,COM1,0,81.5,FINESTEERING,1815,405920.500,00040000,8505,11526;SOL_COMPUTED,SINGLE,41.39075493752,-73.95365368167,34.2128,-32.2000,WGS84,2.0285,1.6507,3.3377,"",0.000,0.000,11,11,11,0,0,00,00,01*2c60f3dd
%RAWIMUSA,1815,405921.000;1815,405920.988526667,00000077,64449,5171,1174,-63,28,-282*5ff52a1a
#BESTGPSPOSA,COM1,0,81.5,FINESTEERING,1815,405921.000,00040000,8505,11526;SOL_COMPUTED,SINGLE,41.39075494020,-73.95365370150,34.2156,-32.2000,WGS84,2.0285,1.6507,3.3378,"",0.000,0.000,11,11,11,0,0,00,00,01*daa1abd1
%RAWIMUSA,1815,405921.500;1815,405921.488526667,00000077,64475,5223,1088,-36,62,-239*46063187
#BESTGPSPOSA,COM1,0,81.5,FINESTEERING,1815,405921.500,00040000,8505,11526;SOL_COMPUTED,SINGLE,41.39075495083,-73.95365371717,34.2224,-32.2000,WGS84,2.0285,1.6507,3.3377,"",0.000,0.000,11,11,11,0,0,00,00,01*88ed77c8
%RAWIMUSA,1815,405922.000;1815,405921.988526667,00000077,64371,5147,1232,-50,103,-128*51f636bd
#BESTGPSPOSA,COM1,0,78.5,FINESTEERING,1815,405922.000,00040000,8505,11526;SOL_COMPUTED,SINGLE,41.39075487979,-73.95365371102,34.2071,-32.2000,WGS84,2.0285,1.6507,3.3379,"",0.000,0.000,11,11,11,0,0,00,00,01*01c80a72
%RAWIMUSA,1815,405922.500;1815,405922.488526667,00000077,64495,5343,1254,-45,239,-102*f29fd98d
#BESTGPSPOSA,COM1,0,78.5,FINESTEERING,1815,405922.500,00040000,8505,11526;SOL_COMPUTED,SINGLE,41.39075488924,-73.95365369590,34.2137,-32.2000,WGS84,2.0285,1.6506,3.3379,"",0.000,0.000,11,11,11,0,0,00,00,01*7494269e
%RAWIMUSA,1815,405923.000;1815,405922.988526667,00000077,64739,5470,1267,-45,81,12*f34d37b5
#BESTGPSPOSA,COM1,0,78.5,FINESTEERING,1815,405923.000,00040000,8505,11526;SOL_COMPUTED,SINGLE,41.39075486882,-73.95365373161,34.2064,-32.2000,WGS84,2.0286,1.6507,3.3380,"",0.000,0.000,11,11,11,0,0,00,00,01*ac41cc9b
%RAWIMUSA,1815,405923.500;1815,405923.488526667,00000077,64560,5315,1179,-48,9,235*c30073d9
#BESTGPSPOSA,COM1,0,79.0,FINESTEERING,1815,405923.500,00040000,8505,11526;SOL_COMPUTED,SINGLE,41.39075492860,-73.95365370128,34.2171,-32.2000,WGS84,2.0286,1.6507,3.3381,"",0.000,0.000,11,11,11,0,0,00,00,01*8bb91f7c
%RAWIMUSA,1815,405924.000;1815,405923.988526667,00000077,64281,5249,1128,-57,-25,198*ba99603a
#BESTGPSPOSA,COM1,0,79.0,FINESTEERING,1815,405924.000,00040000,8505,11526;SOL_COMPUTED,SINGLE,41.39075491726,-73.95365371363,34.2079,-32.2000,WGS84,2.0287,1.6507,3.3382,"",0.000,0.000,11,11,11,0,0,00,00,01*d2039777
%RAWIMUSA,1815,405924.500;1815,405924.488526667,00000077,64106,5128,1203,-65,94,237*79afe2ec
#BESTGPSPOSA,COM1,0,81.0,FINESTEERING,1815,405924.500,00040000,8505,11526;SOL_COMPUTED,SINGLE,41.39075496340,-73.95365363287,34.2204,-32.2000,WGS84,2.0287,1.6507,3.3382,"",0.000,0.000,11,11,11,0,0,00,00,01*f2edb40b
%RAWIMUSA,1815,405925.000;1815,405924.988526667,00000077,64171,4970,1152,-58,106,129*1b723788
#BESTGPSPOSA,COM1,0,81.0,FINESTEERING,1815,405925.000,00040000,8505,11526;SOL_COMPUTED,SINGLE,41.39075494470,-73.95365368081,34.2127,-32.2000,WGS84,2.0287,1.6507,3.3383,"",0.000,0.000,11,11,11,0,0,00,00,01*de9d7c4a
%RAWIMUSA,1815,405925.500;1815,405925.488526667,00000077,64282,5058,1305,-41,140,-11*a4a6e301
#BESTGPSPOSA,COM1,0,82.5,FINESTEERING,1815,405925.500,00040000,8505,11526;SOL_COMPUTED,SINGLE,41.39075493823,-73.95365362859,34.2217,-32.2000,WGS84,2.0287,1.6507,3.3383,"",0.000,0.000,11,11,11,0,0,00,00,01*fb3fbcd8
%RAWIMUSA,1815,405926.000;1815,405925.988526667,00000077,64167,5164,1155,-37,16,2*ccf72a84
#BESTGPSPOSA,COM1,0,80.0,FINESTEERING,1815,405926.000,00040000,8505,11526;SOL_COMPUTED,SINGLE,41.39075494576,-73.95365370832,34.2069,-32.2000,WGS84,2.0288,1.6507,3.3384,"",0.000,0.000,11,11,11,0,0,00,00,01*23ff1c24
%RAWIMUSA,1815,405926.500;1815,405926.488526667,00000077,64054,4853,1059,-30,151,-170*c3f91c5f
#BESTGPSPOSA,COM1,0,80.0,FINESTEERING,1815,405926.500,00040000,8505,11526;SOL_COMPUTED,SINGLE,41.39075492327,-73.95365369653,34.2127,-32.2000,WGS84,2.0287,1.6506,3.3384,"",0.000,0.000,11,11,11,0,0,00,00,01*c8fe80d5
%RAWIMUSA,1815,405927.000;1815,405926.988526667,00000077,64162,5051,1032,-35,101,-303*4866cf72
#BESTGPSPOSA,COM1,0,80.0,FINESTEERING,1815,405927.000,00040000,8505,11526;SOL_COMPUTED,SINGLE,41.39075486478,-73.95365369638,34.2061,-32.2000,WGS84,2.0288,1.6507,3.3385,"",0.000,0.000,11,11,11,0,0,00,00,01*0b172026
%RAWIMUSA,1815,405927.500;1815,405927.488526667,00000077,64034,5004,968,-24,95,-336*d90121fd
#BESTGPSPOSA,COM1,0,82.0,FINESTEERING,1815,405927.500,00040000,8505,11526;SOL_COMPUTED,SINGLE,41.39075488656,-73.95365367969,34.2075,-32.2000,WGS84,2.0288,1.6506,3.3385,"",0.000,0.000,11,11,11,0,0,00,00,01*49623b52
%RAWIMUSA,1815,405928.000;1815,405927.988526667,00000077,64282,5099,1163,-62,244,-409*1cd3d4ef
#BESTGPSPOSA,COM1,0,82.0,FINESTEERING,1815,405928.000,00040000,8505,11526;SOL_COMPUTED,SINGLE,41.39075488371,-73.95365371580,34.2070,-32.2000,WGS84,2.0288,1.6507,3.3386,"",0.000,0.000,11,11,11,0,0,00,00,01*111efccf
%RAWIMUSA,1815,405928.500;1815,405928.488526667,00000077,64190,5191,1091,-55,219,-379*5813b0fd
#BESTGPSPOSA,COM1,0,79.5,FINESTEERING,1815,405928.500,00040000,8505,11526;SOL_COMPUTED,SINGLE,41.39075495242,-73.95365367314,34.2161,-32.2000,WGS84,2.0288,1.6506,3.3386,"",0.000,0.000,11,11,11,0,0,00,00,01*c9eac769
%RAWIMUSA,1815,405929.000;1815,405928.988526667,00000077,64418,5245,1153,-41,222,-289*f37b5bc4
#BESTGPSPOSA,COM1,0,79.5,FINESTEERING,1815,405929.000,00040000,8505,11526;SOL_COMPUTED,SINGLE,41.39075492020,-73.95365371028,34.2125,-32.2000,WGS84,2.0289,1.6507,3.3387,"",0.000,0.000,11,11,11,0,0,00,00,01*3f940d67
%RAWIMUSA,1815,405929.500;1815,405929.488526667,00000077,64329,5121,1121,-38,181,-205*e7f16778
#BESTGPSPOSA,COM1,0,79.5,FINESTEERING,1815,405929.500,00040000,8505,11526;SOL_COMPUTED,SINGLE,41.39075499017,-73.95365373482,34.2101,-32.2000,WGS84,2.0289,1.6506,3.3388,"",0.000,0.000,11,11,11,0,0,00,00,01*03bd879e
%RAWIMUSA,1815,405930.000;1815,405929.988526667,00000077,64336,5452,1100,-15,339,-57*5d958a05
#BESTGPSPOSA,COM1,0,81.5,FINESTEERING,1815,405930.000,00040000,8505,11526;SOL_COMPUTED,SINGLE,41.39075493872,-73.95365374101,34.2160,-32.2000,WGS84,2.0289,1.6506,3.3388,"",0.000,0.000,11,11,11,0,0,00,00,01*11d10930
%RAWIMUSA,1815,405930.500;1815,405930.488526667,00000077,64392,5366,1066,-14,167,114*ed196c13
#BESTGPSPOSA,COM1,0,81.5,FINESTEERING,1815,405930.500,00040000,8505,11526;SOL_COMPUTED,SINGLE,41.39075502256,-73.95365368786,34.2088,-32.2000,WGS84,2.0289,1.6506,3.3388,"",0.000,0.000,11,11,11,0,0,00,00,01*2c915392
%RAWIMUSA,1815,405931.000;1815,405930.988526667,00000077,64226,5504,963,-51,129,187*2f42bcd2
#BESTGPSPOSA,COM1,0,82.5,FINESTEERING,1815,405931.000,00040000,8505,11526;SOL_COMPUTED,SINGLE,41.39075500727,-73.95365372694,34.1987,-32.2000,WGS84,2.0290,1.6506,3.3390,"",0.000,0.000,11,11,11,0,0,00,00,01*fec6e93e
%RAWIMUSA,1815,405931.500;1815,405931.488526667,00000077,64184,5172,808,-44,184,153*977706cb
#BESTGPSPOSA,COM1,0,79.5,FINESTEERING,1815,405931.500,00040000,8505,11526;SOL_COMPUTED,SINGLE,41.39075504715,-73.95365363959,34.1987,-32.2000,WGS84,2.0289,1.6506,3.3389,"",0.000,0.000,11,11,11,0,0,00,00,01*795595dc
%RAWIMUSA,1815,405932.000;1815,405931.988526667,00000077,63952,5040,830,-20,188,267*ea945840
#BESTGPSPOSA,COM1,0,79.5,FINESTEERING,1815,405932.000,00040000,8505,11526;SOL_COMPUTED,SINGLE,41.39075500014,-73.95365374865,34.1957,-32.2000,WGS84,2.0290,1.6506,3.3391,"",0.000,0.000,11,11,11,0,0,00,00,01*07d09cf8
%RAWIMUSA,1815,405932.500;1815,405932.488526667,00000077,63866,5157,828,-36,268,180*bdf930ab
#BESTGPSPOSA,COM1,0,79.5,FINESTEERING,1815,405932.500,00040000,8505,11526;SOL_COMPUTED,SINGLE,41.39075500756,-73.95365373115,34.1947,-32.2000,WGS84,2.0290,1.6506,3.3391,"",0.000,0.000,11,11,11,0,0,00,00,01*efee1408
%RAWIMUSA,1815,405933.000;1815,405932.988526667,00000077,63776,5169,910,-20,167,217*cea51111
#BESTGPSPOSA,COM1,0,81.5,FINESTEERING,1815,405933.000,00040000,8505,11526;SOL_COMPUTED,SINGLE,41.39075501599,-73.95365371226,34.2062,-32.2000,WGS84,2.0290,1.6506,3.3392,"",0.000,0.000,11,11,11,0,0,00,00,01*7cb2e450
%RAWIMUSA,1815,405933.500;1815,405933.488526667,00000077,63843,5105,945,6,176,15*47da2963
#BESTGPSPOSA,COM1,0,81.5,FINESTEERING,1815,405933.500,00040000,8505,11526;SOL_COMPUTED,SINGLE,41.39075506177,-73.95365369784,34.2091,-32.2000,WGS84,2.0290,1.6505,3.3391,"",0.000,0.000,11,11,11,0,0,00,00,01*87a7d5ef
%RAWIMUSA,1815,405934.000;1815,405933.988526667,00000077,63807,5203,946,0,105,-134*e1e1f25e
#BESTGPSPOSA,COM1,0,83.0,FINESTEERING,1815,405934.000,00040000,8505,11526;SOL_COMPUTED,SINGLE,41.39075506761,-73.95365364969,34.2128,-32.2000,WGS84,2.0290,1.6506,3.3392,"",0.000,0.000,11,11,11,0,0,00,00,01*a1dbb9d2
%RAWIMUSA,1815,405934.500;1815,405934.488526667,00000077,63695,5062,826,10,-15,-206*34e35a13
#BESTGPSPOSA,COM1,0,81.0,FINESTEERING,1815,405934.500,00040000,8505,11526;SOL_COMPUTED,SINGLE,41.39075503152,-73.95365366664,34.2090,-32.2000,WGS84,2.0290,1.6505,3.3392,"",0.000,0.000,11,11,11,0,0,00,00,01*c52981ec
%RAWIMUSA,1815,405935.000;1815,405934.988526667,00000077,63927,5177,721,-9,39,-297*b3248fad
#BESTGPSPOSA,COM1,0,81.0,FINESTEERING,1815,405935.000,00040000,8505,11526;SOL_COMPUTED,SINGLE,41.39075502850,-73.95365370692,34.2018,-32.2000,WGS84,2.0291,1.6506,3.3394,"",0.000,0.000,11,11,11,0,0,00,00,01*3bbad842
%RAWIMUSA,1815,405935.500;1815,405935.488526667,00000077,63777,5307,818,-11,-106,-286*03ff3632
#BESTGPSPOSA,COM1,0,79.5,FINESTEERING,1815,405935.500,00040000,8505,11526;SOL_COMPUTED,SINGLE,41.39075499537,-73.95365365820,34.2096,-32.2000,WGS84,2.0291,1.6506,3.3394,"",0.000,0.000,11,11,11,0,0,00,00,01*5fbd9c40
%RAWIMUSA,1815,405936.000;1815,405935.988526667,00000077,64070,5370,823,-22,45,-305*6e0c59ca
#BESTGPSPOSA,COM1,0,79.5,FINESTEERING,1815,405936.000,00040000,8505,11526;SOL_COMPUTED,SINGLE,41.39075502178,-73.95365365768,34.2114,-32.2000,WGS84,2.0291,1.6506,3.3395,"",0.000,0.000,11,11,11,0,0,00,00,01*0a4796a8
%RAWIMUSA,1815,405936.500;1815,405936.488526667,00000077,64224,5406,952,-13,-49,-270*22d6f88d
#BESTGPSPOSA,COM1,0,76.5,FINESTEERING,1815,405936.500,00040000,8505,11526;SOL_COMPUTED,SINGLE,41.39075506287,-73.95365362869,34.2225,-32.2000,WGS84,2.0291,1.6505,3.3394,"",0.000,0.000,11,11,11,0,0,00,00,01*c54b5e4d
%RAWIMUSA,1815,405937.000;1815,405936.988526667,00000077,64053,5457,789,-17,-82,-97*23229da5
#BESTGPSPOSA,COM1,0,76.5,FINESTEERING,1815,405937.000,00040000,8505,11526;SOL_COMPUTED,SINGLE,41.39075503839,-73.95365366769,34.2200,-32.2000,WGS84,2.0292,1.6506,3.3396,"",0.000,0.000,11,11,11,0,0,00,00,01*49b79548
%RAWIMUSA,1815,405937.500;1815,405937.488526667,00000077,64172,5411,947,14,-205,-47*77bf81df
#BESTGPSPOSA,COM1,0,76.5,FINESTEERING,1815,405937.500,00040000,8505,11526;SOL_COMPUTED,SINGLE,41.39075508405,-73.95365365458,34.2269,-32.2000,WGS84,2.0292,1.6506,3.3396,"",0.000,0.000,11,11,11,0,0,00,00,01*fd019f04
%RAWIMUSA,1815,405938.000;1815,405937.988526667,00000077,64095,5528,983,0,-134,65*1cc5109e
#BESTGPSPOSA,COM1,0,69.0,FINESTEERING,1815,405938.000,00040000,8505,11526;SOL_COMPUTED,SINGLE,41.39075506840,-73.95365371695,34.2146,-32.2000,WGS84,2.0293,1.6506,3.3399,"",0.000,0.000,11,11,11,0,0,00,00,01*31b8bdc9
%RAWIMUSA,1815,405938.500;1815,405938.488526667,00000077,64139,5570,1002,0,-146,136*f3e0ffba
#BESTGPSPOSA,COM1,0,69.0,FINESTEERING,1815,405938.500,00040000,8505,11526;SOL_COMPUTED,SINGLE,41.39075510324,-73.95365364938,34.2164,-32.2000,WGS84,2.0293,1.6506,3.3399,"",0.000,0.000,11,11,11,0,0,00,00,01*b7013f8f
%RAWIMUSA,1815,405939.000;1815,405938.988526667,00000077,64226,5583,924,2,10,263*a50fde3c
#BESTGPSPOSA,COM1,0,69.0,FINESTEERING,1815,405939.000,00040000,8505,11526;SOL_COMPUTED,SINGLE,41.39075507261,-73.95365364825,34.2149,-32.2000,WGS84,2.0294,1.6506,3.3400,"",0.000,0.000,11,11,11,0,0,00,00,01*876e5bcb
%RAWIMUSA,1815,405939.500;1815,405939.488526667,00000077,64320,5577,944,6,-186,329*891051c2
#BESTGPSPOSA,COM1,0,79.0,FINESTEERING,1815,405939.500,00040000,8505,11526;SOL_COMPUTED,SINGLE,41.39075507066,-73.95365359622,34.2210,-32.2000,WGS84,2.0294,1.6506,3.3400,"",0.000,0.000,11,11,11,0,0,00,00,01*2ffb8939
%RAWIMUSA,1815,405940.000;1815,405939.988526667,00000077,64135,5409,940,7,-51,335*1a0715ff
#BESTGPSPOSA,COM1,0,79.0,FINESTEERING,1815,405940.000,00040000,8505,11526;SOL_COMPUTED,SINGLE,41.39075501473,-73.95365366318,34.2081,-32.2000,WGS84,2.0294,1.6507,3.3402,"",0.000,0.000,11,11,11,0,0,00,00,01*6a193c41
%RAWIMUSA,1815,405940.500;1815,405940.488526667,00000077,64055,5280,933,15,-142,389*95fd7c3c
#BESTGPSPOSA,COM1,0,80.5,FINESTEERING,1815,405940.500,00040000,8505,11526;SOL_COMPUTED,SINGLE,41.39075506229,-73.95365362194,34.2214,-32.2000,WGS84,2.0295,1.6507,3.3403,"",0.000,0.000,11,11,11,0,0,00,00,01*7bc97934
%RAWIMUSA,1815,405941.000;1815,405940.988526667,00000077,64124,5338,1021,10,-76,378*d106d490
#BESTGPSPOSA,COM1,0,80.5,FINESTEERING,1815,405941.000,00040000,8505,11526;SOL_COMPUTED,SINGLE,41.39075512730,-73.95365367412,34.2097,-32.2000,WGS84,2.0296,1.6508,3.3405,"",0.000,0.000,11,11,11,0,0,00,00,01*645f4c2b
%RAWIMUSA,1815,405941.500;1815,405941.488526667,00000077,64275,5338,1215,24,-93,292*0553cd74
#BESTGPSPOSA,COM1,0,81.5,FINESTEERING,1815,405941.500,00040000,8505,11526;SOL_COMPUTED,SINGLE,41.39075514760,-73.95365361722,34.2023,-32.2000,WGS84,2.0295,1.6507,3.3404,"",0.000,0.000,11,11,11,0,0,00,00,01*317382b1
%RAWIMUSA,1815,405942.000;1815,405941.988526667,00000077,64018,5409,1164,13,-9,247*b2de0e8a
#BESTGPSPOSA,COM1,0,81.5,FINESTEERING,1815,405942.000,00040000,8505,11526;SOL_COMPUTED,SINGLE,41.39075512307,-73.95365359257,34.2024,-32.2000,WGS84,2.0295,1.6506,3.3403,"",0.000,0.000,11,11,11,0,0,00,00,01*b0673a7a
%RAWIMUSA,1815,405942.500;1815,405942.488526667,00000077,63902,5181,1138,32,-25,119*567b3a5d
#BESTGPSPOSA,COM1,0,82.0,FINESTEERING,1815,405942.500,00040000,8505,11526;SOL_COMPUTED,SINGLE,41.39075519160,-73.95365360286,34.2001,-32.2000,WGS84,2.0296,1.6507,3.3405,"",0.000,0.000,11,11,11,0,0,00,00,01*3c81c187
%RAWIMUSA,1815,405943.000;1815,405942.988526667,00000077,63912,5220,866,23,-48,74*eb808bc4
#BESTGPSPOSA,COM1,0,82.0,FINESTEERING,1815,405943.000,00040000,8505,11526;SOL_COMPUTED,SINGLE,41.39075512589,-73.95365357371,34.2002,-32.2000,WGS84,2.0296,1.6507,3.3406,"",0.000,0.000,11,11,11,0,0,00,00,01*dc496601
%RAWIMUSA,1815,405943.500;1815,405943.488526667,00000077,63830,5204,899,28,-113,-45*e27dad22
#BESTGPSPOSA,COM1,0,82.5,FINESTEERING,1815,405943.500,00040000,8505,11526;SOL_COMPUTED,SINGLE,41.39075521921,-73.95365361423,34.1916,-32.2000,WGS84,2.0300,1.6511,3.3415,"",0.000,0.000,11,11,11,0,0,00,00,01*590be148
%RAWIMUSA,1815,405944.000;1815,405943.988526667,00000077,64053,5167,1023,25,-263,-200*b4e933e8
#BESTGPSPOSA,COM1,0,79.0,FINESTEERING,1815,405944.000,00040000,8505,11526;SOL_COMPUTED,SINGLE,41.39075516238,-73.95365366417,34.1870,-32.2000,WGS84,2.0299,1.6509,3.3411,"",0.000,0.000,11,11,11,0,0,00,00,01*fb0e1d1e
%RAWIMUSA,1815,405944.500;1815,405944.488526667,00000077,64040,5192,919,-1,-193,-256*58407312
#BESTGPSPOSA,COM1,0,79.0,FINESTEERING,1815,405944.500,00040000,8505,11526;SOL_COMPUTED,SINGLE,41.39075520912,-73.95365360720,34.1891,-32.2000,WGS84,2.0296,1.6506,3.3406,"",0.000,0.000,11,11,11,0,0,00,00,01*78a2837d
%RAWIMUSA,1815,405945.000;1815,405944.988526667,00000077,64100,5323,953,-13,-69,-291*53c79ffa
#BESTGPSPOSA,COM1,0,79.0,FINESTEERING,1815,405945.000,00040000,8505,11526;SOL_COMPUTED,SINGLE,41.39075519268,-73.95365363330,34.1929,-32.2000,WGS84,2.0295,1.6505,3.3405,"",0.000,0.000,11,11,11,0,0,00,00,01*234848e6
%RAWIMUSA,1815,405945.500;1815,405945.488526667,00000077,64128,5560,915,14,-139,-168*6ee50490
#BESTGPSPOSA,COM1,0,82.0,FINESTEERING,1815,405945.500,00040000,8505,11526;SOL_COMPUTED,SINGLE,41.39075516977,-73.95365348785,34.2161,-32.2000,WGS84,2.0297,1.6506,3.3409,"",0.000,0.000,11,11,11,0,0,00,00,01*372dac90
%RAWIMUSA,1815,405946.000;1815,405945.988526667,00000077,64211,5378,960,0,-109,-65*d51227ca
#BESTGPSPOSA,COM1,0,73.0,FINESTEERING,1815,405946.000,00040000,8505,11526;SOL_COMPUTED,SINGLE,41.39075518090,-73.95365354515,34.2153,-32.2000,WGS84,2.0297,1.6506,3.3409,"",0.000,0.000,11,11,11,0,0,00,00,01*5a9e322a
%RAWIMUSA,1815,405946.500;1815,405946.488526667,00000077,64142,5384,1013,-2,-115,51*b8a3c747
#BESTGPSPOSA,COM1,0,73.0,FINESTEERING,1815,405946.500,00040000,8505,11526;SOL_COMPUTED,SINGLE,41.39075522451,-73.95365344654,34.2239,-32.2000,WGS84,2.0297,1.6506,3.3409,"",0.000,0.000,11,11,11,0,0,00,00,01*cfc1adf0
%RAWIMUSA,1815,405947.000;1815,405946.988526667,00000077,64116,5652,949,-10,-8,42*d4fa364d
#BESTGPSPOSA,COM1,0,73.0,FINESTEERING,1815,405947.000,00040000,8505,11526;SOL_COMPUTED,SINGLE,41.39075526987,-73.95365348118,34.2205,-32.2000,WGS84,2.0298,1.6506,3.3411,"",0.000,0.000,11,11,11,0,0,00,00,01*b4d59337
%RAWIMUSA,1815,405947.500;1815,405947.488526667,00000077,64068,5571,850,2,91,98*96e8e35a
#BESTGPSPOSA,COM1,0,73.0,FINESTEERING,1815,405947.500,00040000,8505,11526;SOL_COMPUTED,SINGLE,41.39075531298,-73.95365346400,34.2227,-32.2000,WGS84,2.0297,1.6506,3.3410,"",0.000,0.000,11,11,11,0,0,00,00,01*475ed88f
%RAWIMUSA,1815,405948.000;1815,405947.988526667,00000077,64029,5459,710,-15,-126,178*3479943a
#BESTGPSPOSA,COM1,0,81.5,FINESTEERING,1815,405948.000,00040000,8505,11526;SOL_COMPUTED,SINGLE,41.39075524353,-73.95365345162,34.2170,-32.2000,WGS84,2.0299,1.6508,3.3414,"",0.000,0.000,11,11,11,0,0,00,00,01*e9dce047
%RAWIMUSA,1815,405948.500;1815,405948.488526667,00000077,64071,5135,857,-24,-111,352*12d874ca
#BESTGPSPOSA,COM1,0,81.5,FINESTEERING,1815,405948.500,00040000,8505,11526;SOL_COMPUTED,SINGLE,41.39075527121,-73.95365346907,34.2245,-32.2000,WGS84,2.0298,1.6506,3.3412,"",0.000,0.000,11,11,11,0,0,00,00,01*ea7a2a7d
%RAWIMUSA,1815,405949.000;1815,405948.988526667,00000077,64019,5299,785,-16,-32,321*a5a6f2a4
#BESTGPSPOSA,COM1,0,81.5,FINESTEERING,1815,405949.000,00040000,8505,11526;SOL_COMPUTED,SINGLE,41.39075523438,-73.95365352092,34.2236,-32.2000,WGS84,2.0298,1.6506,3.3412,"",0.000,0.000,11,11,11,0,0,00,00,01*6bc2f2ab
%RAWIMUSA,1815,405949.500;1815,405949.488526667,00000077,63815,5135,875,-25,162,310*60a6fecb
#BESTGPSPOSA,COM1,0,80.5,FINESTEERING,1815,405949.500,00040000,8505,11526;SOL_COMPUTED,SINGLE,41.39075524122,-73.95365350212,34.2318,-32.2000,WGS84,2.0298,1.6505,3.3412,"",0.000,0.000,11,11,11,0,0,00,00,01*a4769e44
%RAWIMUSA,1815,405950.000;1815,405949.988526667,00000077,63829,5228,777,-25,125,231*ce3187af
#BESTGPSPOSA,COM1,0,80.5,FINESTEERING,1815,405950.000,00040000,8505,11526;SOL_COMPUTED,SINGLE,41.39075519482,-73.95365350341,34.2365,-32.2000,WGS84,2.0298,1.6506,3.3413,"",0.000,0.000,11,11,11,0,0,00,00,01*7f643058
%RAWIMUSA,1815,405950.500;1815,405950.488526667,00000077,63718,5132,782,-18,82,60*9095388d
#BESTGPSPOSA,COM1,0,80.0,FINESTEERING,1815,405950.500,00040000,8505,11526;SOL_COMPUTED,SINGLE,41.39075522226,-73.95365345521,34.2453,-32.2000,WGS84,2.0298,1.6506,3.3414,"",0.000,0.000,11,11,11,0,0,00,00,01*cda0e8d2
%RAWIMUSA,1815,405951.000;1815,405950.988526667,00000077,63782,5075,827,-4,138,-69*0de7a4e2
#BESTGPSPOSA,COM1,0,80.0,FINESTEERING,1815,405951.000,00040000,8505,11526;SOL_COMPUTED,SINGLE,41.39075516792,-73.95365352271,34.2428,-32.2000,WGS84,2.0299,1.6506,3.3415,"",0.000,0.000,11,11,11,0,0,00,00,01*24e54d00
%RAWIMUSA,1815,405951.500;1815,405951.488526667,00000077,63824,5031,787,1,17,-123*f8b207cc
#BESTGPSPOSA,COM1,0,80.0,FINESTEERING,1815,405951.500,00040000,8505,11526;SOL_COMPUTED,SINGLE,41.39075521735,-73.95365350789,34.2509,-32.2000,WGS84,2.0299,1.6505,3.3415,"",0.000,0.000,11,11,11,0,0,00,00,01*a34bc812
%RAWIMUSA,1815,405952.000;1815,405951.988526667,00000077,63798,5064,722,-19,12,-200*da40217f
#BESTGPSPOSA,COM1,0,83.5,FINESTEERING,1815,405952.000,00040000,8505,11526;SOL_COMPUTED,SINGLE,41.39075518712,-73.95365355096,34.2408,-32.2000,WGS84,2.0299,1.6506,3.3416,"",0.000,0.000,11,11,11,0,0,00,00,01*d36efa14
%RAWIMUSA,1815,405952.500;1815,405952.488526667,00000077,63948,5139,944,-24,63,-296*2d8f9675
#BESTGPSPOSA,COM1,0,81.5,FINESTEERING,1815,405952.500,00040000,8505,11526;SOL_COMPUTED,SINGLE,41.39075517625,-73.95365355460,34.2418,-32.2000,WGS84,2.0299,1.6505,3.3416,"",0.000,0.000,11,11,11,0,0,00,00,01*53a95790
%RAWIMUSA,1815,405953.000;1815,405952.988526667,00000077,64042,5291,900,-12,-49,-322*e2567c6b
#BESTGPSPOSA,COM1,0,81.5,FINESTEERING,1815,405953.000,00040000,8505,11526;SOL_COMPUTED,SINGLE,41.39075516631,-73.95365359003,34.2388,-32.2000,WGS84,2.0300,1.6505,3.3417,"",0.000,0.000,11,11,11,0,0,00,00,01*c7f54e2f
%RAWIMUSA,1815,405953.500;1815,405953.488526667,00000077,64223,5246,949,0,-124,-184*59e0aa76
#BESTGPSPOSA,COM1,0,81.5,FINESTEERING,1815,405953.500,00040000,8505,11526;SOL_COMPUTED,SINGLE,41.39075521524,-73.95365357883,34.2403,-32.2000,WGS84,2.0300,1.6505,3.3417,"",0.000,0.000,11,11,11,0,0,00,00,01*8371929a
%RAWIMUSA,1815,405954.000;1815,405953.988526667,00000077,63922,5298,830,-8,-6,-121*545e89a6
#BESTGPSPOSA,COM1,0,82.5,FINESTEERING,1815,405954.000,00040000,8505,11526;SOL_COMPUTED,SINGLE,41.39075519364,-73.95365360293,34.2419,-32.2000,WGS84,2.0300,1.6506,3.3418,"",0.000,0.000,11,11,11,0,0,00,00,01*7f0b3745
%RAWIMUSA,1815,405954.500;1815,405954.488526667,00000077,64141,5419,942,-11,-68,-31*5a260059
#BESTGPSPOSA,COM1,0,80.0,FINESTEERING,1815,405954.500,00040000,8505,11526;SOL_COMPUTED,SINGLE,41.39075521300,-73.95365355873,34.2624,-32.2000,WGS84,2.0300,1.6505,3.3418,"",0.000,0.000,11,11,11,0,0,00,00,01*73b46d7a
%RAWIMUSA,1815,405955.000;1815,405954.988526667,00000077,64359,5455,1021,-12,-66,-17*97fb0b67
#BESTGPSPOSA,COM1,0,80.0,FINESTEERING,1815,405955.000,00040000,8505,11526;SOL_COMPUTED,SINGLE,41.39075520464,-73.95365359168,34.2494,-32.2000,WGS84,2.0301,1.6505,3.3419,"",0.000,0.000,11,11,11,0,0,00,00,01*5711b3ad
%RAWIMUSA,1815,405955.500;1815,405955.488526667,00000077,64248,5606,948,-9,24,143*1c6896a1
#BESTGPSPOSA,COM1,0,80.0,FINESTEERING,1815,405955.500,00040000,8505,11526;SOL_COMPUTED,SINGLE,41.39075524663,-73.95365355166,34.2627,-32.2000,WGS84,2.0300,1.6505,3.3419,"",0.000,0.000,11,11,11,0,0,00,00,01*8ba0ac34
%RAWIMUSA,1815,405956.000;1815,405955.988526667,00000077,64255,5494,913,-14,-26,202*97754618
#BESTGPSPOSA,COM1,0,82.0,FINESTEERING,1815,405956.000,00040000,8505,11526;SOL_COMPUTED,SINGLE,41.39075523787,-73.95365356476,34.2627,-32.2000,WGS84,2.0301,1.6505,3.3420,"",0.000,0.000,11,11,11,0,0,00,00,01*22ddd4cd
%RAWIMUSA,1815,405956.500;1815,405956.488526667,00000077,64189,5342,839,-13,8,271*75b97bd2
#BESTGPSPOSA,COM1,0,82.0,FINESTEERING,1815,405956.500,00040000,8505,11526;SOL_COMPUTED,SINGLE,41.39075528123,-73.95365360645,34.2692,-32.2000,WGS84,2.0301,1.6505,3.3420,"",0.000,0.000,11,11,11,0,0,00,00,01*be062bf6
%RAWIMUSA,1815,405957.000;1815,405956.988526667,00000077,64092,5164,761,-26,-8,343*5e7325ab
#BESTGPSPOSA,COM1,0,82.0,FINESTEERING,1815,405957.000,00040000,8505,11526;SOL_COMPUTED,SINGLE,41.39075515072,-73.95365365274,34.2523,-32.2000,WGS84,2.0301,1.6505,3.3421,"",0.000,0.000,11,11,11,0,0,00,00,01*e22e1106
%RAWIMUSA,1815,405957.500;1815,405957.488526667,00000077,63919,5106,906,-30,139,237*c042297f
#BESTGPSPOSA,COM1,0,83.0,FINESTEERING,1815,405957.500,00040000,8505,11526;SOL_COMPUTED,SINGLE,41.39075520071,-73.95365358443,34.2600,-32.2000,WGS84,2.0301,1.6505,3.3421,"",0.000,0.000,11,11,11,0,0,00,00,01*0c4d6e61
%RAWIMUSA,1815,405958.000;1815,405957.988526667,00000077,63868,5166,888,-31,258,164*f80ff9e4
#BESTGPSPOSA,COM1,0,81.0,FINESTEERING,1815,405958.000,00040000,8505,11526;SOL_COMPUTED,SINGLE,41.39075518980,-73.95365355419,34.2521,-32.2000,WGS84,2.0302,1.6505,3.3422,"",0.000,0.000,11,11,11,0,0,00,00,01*1ebd7279
%RAWIMUSA,1815,405958.500;1815,405958.488526667,00000077,63898,5185,990,-18,231,12*e84c6a76
#BESTGPSPOSA,COM1,0,81.0,FINESTEERING,1815,405958.500,00040000,8505,11526;SOL_COMPUTED,SINGLE,41.39075524272,-73.95365354387,34.2606,-32.2000,WGS84,2.0301,1.6504,3.3422,"",0.000,0.000,11,11,11,0,0,00,00,01*ccd2a274
%RAWIMUSA,1815,405959.000;1815,405958.988526667,00000077,63894,5154,995,-20,236,-17*0cac344d
#BESTGPSPOSA,COM1,0,81.0,FINESTEERING,1815,405959.000,00040000,8505,11526;SOL_COMPUTED,SINGLE,41.39075520615,-73.95365355539,34.2695,-32.2000,WGS84,2.0302,1.6505,3.3423,"",0.000,0.000,11,11,11,0,0,00,00,01*8b026e84
%RAWIMUSA,1815,405959.500;1815,405959.488526667,00000077,64134,5134,978,-27,174,-112*f37eb1a5
#BESTGPSPOSA,COM1,0,81.5,FINESTEERING,1815,405959.500,00040000,8505,11526;SOL_COMPUTED,SINGLE,41.39075523589,-73.95365349380,34.2721,-32.2000,WGS84,2.0302,1.6504,3.3423,"",0.000,0.000,11,11,11,0,0,00,00,01*3b270459
%RAWIMUSA,1815,405960.000;1815,405959.988526667,00000077,63971,5119,900,-34,265,-162*3ba694cb
#BESTGPSPOSA,COM1,0,81.5,FINESTEERING,1815,405960.000,00040000,8505,11526;SOL_COMPUTED,SINGLE,41.39075517070,-73.95365356013,34.2537,-32.2000,WGS84,2.0303,1.6505,3.3425,"",0.000,0.000,11,11,11,0,0,00,00,01*5a336afd
%RAWIMUSA,1815,405960.500;1815,405960.488526667,00000077,64049,5083,956,-34,132,-305*0bafdd3a
#BESTGPSPOSA,COM1,0,82.0,FINESTEERING,1815,405960.500,00040000,8505,11526;SOL_COMPUTED,SINGLE,41.39075522178,-73.95365352445,34.2569,-32.2000,WGS84,2.0302,1.6504,3.3424,"",0.000,0.000,11,11,11,0,0,00,00,01*6ef1f16f
%RAWIMUSA,1815,405961.000;1815,405960.988526667,00000077,64165,5201,969,-39,162,-332*7bc5ba9e
#BESTGPSPOSA,COM1,0,82.0,FINESTEERING,1815,405961.000,00040000,8505,11526;SOL_COMPUTED,SINGLE,41.39075516199,-73.95365351927,34.2534,-32.2000,WGS84,2.0303,1.6505,3.3425,"",0.000,0.000,11,11,11,0,0,00,00,01*33f51abb
%RAWIMUSA,1815,405961.500;1815,405961.488526667,00000077,64306,5211,980,-43,170,-310*9d4418b3
#BESTGPSPOSA,COM1,0,82.5,FINESTEERING,1815,405961.500,00040000,8505,11526;SOL_COMPUTED,SINGLE,41.39075518373,-73.95365348783,34.2561,-32.2000,WGS84,2.0303,1.6504,3.3425,"",0.000,0.000,11,11,11,0,0,00,00,01*3aa00bc1
%RAWIMUSA,1815,405962.000;1815,405961.988526667,00000077,64331,5182,938,-40,228,-172*ffd8a76f
#BESTGPSPOSA,COM1,0,80.5,FINESTEERING,1815,405962.000,00040000,8505,11526;SOL_COMPUTED,SINGLE,41.39075523510,-73.95365352010,34.2520,-32.2000,WGS84,2.0303,1.6505,3.3427,"",0.000,0.000,11,11,11,0,0,00,00,01*7bb2a568
%RAWIMUSA,1815,405962.500;1815,405962.488526667,00000077,64229,5208,1007,-29,184,-86*b23e6a08
#BESTGPSPOSA,COM1,0,80.5,FINESTEERING,1815,405962.500,00040000,8505,11526;SOL_COMPUTED,SINGLE,41.39075519628,-73.95365351676,34.2540,-32.2000,WGS84,2.0303,1.6504,3.3427,"",0.000,0.000,11,11,11,0,0,00,00,01*4e7a1b0f
%RAWIMUSA,1815,405963.000;1815,405962.988526667,00000077,64238,5206,1252,-37,100,-27*ac96b2e2
#BESTGPSPOSA,COM1,0,80.5,FINESTEERING,1815,405963.000,00040000,8505,11526;SOL_COMPUTED,SINGLE,41.39075517045,-73.95365359417,34.2364,-32.2000,WGS84,2.0304,1.6505,3.3428,"",0.000,0.000,11,11,11,0,0,00,00,01*d08ae104
%RAWIMUSA,1815,405963.500;1815,405963.488526667,00000077,64471,5336,1152,-39,224,27*ca8393bb
#BESTGPSPOSA,COM1,0,81.5,FINESTEERING,1815,405963.500,00040000,8505,11526;SOL_COMPUTED,SINGLE,41.39075515228,-73.95365356002,34.2476,-32.2000,WGS84,2.0304,1.6504,3.3428,"",0.000,0.000,11,11,11,0,0,00,00,01*81d53ea8
%RAWIMUSA,1815,405964.000;1815,405963.988526667,00000077,64233,5437,1047,-48,144,108*f852b35c
#BESTGPSPOSA,COM1,0,80.5,FINESTEERING,1815,405964.000,00040000,8505,11526;SOL_COMPUTED,SINGLE,41.39075517640,-73.95365355055,34.2525,-32.2000,WGS84,2.0304,1.6504,3.3429,"",0.000,0.000,11,11,11,0,0,00,00,01*2fb0b192
%RAWIMUSA,1815,405964.500;1815,405964.488526667,00000077,64391,5255,876,-44,7,203*33416b1c
#BESTGPSPOSA,COM1,0,80.5,FINESTEERING,1815,405964.500,00040000,8505,11526;SOL_COMPUTED,SINGLE,41.39075525204,-73.95365352253,34.2432,-32.2000,WGS84,2.0304,1.6504,3.3429,"",0.000,0.000,11,11,11,0,0,00,00,01*f77152ee
%RAWIMUSA,1815,405965.000;1815,405964.988526667,00000077,64080,5112,946,-62,119,295*67b89231
#BESTGPSPOSA,COM1,0,80.5,FINESTEERING,1815,405965.000,00040000,8505,11526;SOL_COMPUTED,SINGLE,41.39075516726,-73.95365360512,34.2424,-32.2000,WGS84,2.0303,1.6503,3.3427,"",0.000,0.000,11,11,11,0,0,00,00,01*bfdc019a
%RAWIMUSA,1815,405965.500;1815,405965.488526667,00000077,64159,5038,1189,-52,109,224*73ba3689
#BESTGPSPOSA,COM1,0,82.5,FINESTEERING,1815,405965.500,00040000,8505,11526;SOL_COMPUTED,SINGLE,41.39075516972,-73.95365362136,34.2430,-32.2000,WGS84,2.0305,1.6504,3.3431,"",0.000,0.000,11,11,11,0,0,00,00,01*289ec03b
%RAWIMUSA,1815,405966.000;1815,405965.988526667,00000077,64048,5109,1062,-58,133,105*34292764
#BESTGPSPOSA,COM1,0,82.5,FINESTEERING,1815,405966.000,00040000,8505,11526;SOL_COMPUTED,SINGLE,41.39075519315,-73.95365358241,34.2557,-32.2000,WGS84,2.0309,1.6508,3.3439,"",0.000,0.000,11,11,11,0,0,00,00,01*bc8a6970
%RAWIMUSA,1815,405966.500;1815,405966.488526667,00000077,64205,5005,1171,-58,66,77*cf5cd559
#BESTGPSPOSA,COM1,0,75.5,FINESTEERING,1815,405966.500,00040000,8505,11526;SOL_COMPUTED,SINGLE,41.39075525521,-73.95365356122,34.2605,-32.2000,WGS84,2.0305,1.6504,3.3431,"",0.000,0.000,11,11,11,0,0,00,00,01*24266ada
%RAWIMUSA,1815,405967.000;1815,405966.988526667,00000077,64078,5064,1004,-40,180,-46*67c370f7
#BESTGPSPOSA,COM1,0,75.5,FINESTEERING,1815,405967.000,00040000,8505,11526;SOL_COMPUTED,SINGLE,41.39075520554,-73.95365362794,34.2620,-32.2000,WGS84,2.0306,1.6504,3.3433,"",0.000,0.000,11,11,11,0,0,00,00,01*eca10463
%RAWIMUSA,1815,405967.500;1815,405967.488526667,00000077,64083,4927,1130,-37,113,-208*a35b6ca4
#BESTGPSPOSA,COM1,0,74.5,FINESTEERING,1815,405967.500,00040000,8505,11526;SOL_COMPUTED,SINGLE,41.39075515572,-73.95365360387,34.2606,-32.2000,WGS84,2.0305,1.6504,3.3432,"",0.000,0.000,11,11,11,0,0,00,00,01*aa993e4c
%RAWIMUSA,1815,405968.000;1815,405967.988526667,00000077,64211,5003,1123,-51,73,-287*21dbd04c
