#BESTGPSPOSA,COM1,0,74.5,FINESTEERING,1846,506361.000,00000000,8505,13306;SOL_COMPUTED,SINGLE,41.39058773499,-73.95339928151,3.5394,-32.2000,WGS84,2.7255,2.7899,8.4561,"",0.000,0.000,7,6,6,6,0,86,00,03*a184c194
#BESTGPSPOSA,COM1,0,74.5,FINESTEERING,1846,506361.500,00000000,8505,13306;SOL_COMPUTED,SINGLE,41.39058785941,-73.95339937342,3.5737,-32.2000,WGS84,2.7244,2.7863,8.4219,"",0.000,0.000,7,6,6,6,0,86,00,03*badb6d72
#BESTGPSPOSA,COM1,0,76.0,FINESTEERING,1846,506362.000,00000000,8505,13306;SOL_COMPUTED,SINGLE,41.39058785833,-73.95339957105,3.5596,-32.2000,WGS84,2.7221,2.7856,8.4190,"",0.000,0.000,7,6,6,6,0,86,00,03*8070cc78
#BESTGPSPOSA,COM1,0,76.0,FINESTEERING,1846,506362.500,00000000,8505,13306;SOL_COMPUTED,SINGLE,41.39058786525,-73.95339946021,3.6088,-32.2000,WGS84,2.7221,2.7855,8.4186,"",0.000,0.000,6,6,6,6,0,86,00,03*c638fe4e
#BESTGPSPOSA,COM1,0,76.5,FINESTEERING,1846,506363.000,00000000,8505,13306;SOL_COMPUTED,SINGLE,41.39058728971,-73.95339948709,3.5069,-32.2000,WGS84,2.7221,2.7854,8.4180,"",0.000,0.000,6,6,6,6,0,86,00,03*e22fc087
#BESTGPSPOSA,COM1,0,72.5,FINESTEERING,1846,506363.500,00000000,8505,13306;SOL_COMPUTED,SINGLE,41.39058738729,-73.95339950424,3.5043,-32.2000,WGS84,2.7232,2.7857,8.4188,"",0.000,0.000,6,6,6,6,0,86,00,03*a9d71b18
#BESTGPSPOSA,COM1,0,72.5,FINESTEERING,1846,506364.000,00000000,8505,13306;SOL_COMPUTED,SINGLE,41.39058713867,-73.95339956842,3.4810,-32.2000,WGS84,2.7227,2.7855,8.4179,"",0.000,0.000,6,6,6,6,0,86,00,03*7cab9375
#BESTGPSPOSA,COM1,0,72.5,FINESTEERING,1846,506364.500,00000000,8505,13306;SOL_COMPUTED,SINGLE,41.39058702535,-73.95339952115,3.4664,-32.2000,WGS84,2.7237,2.7857,8.4184,"",0.000,0.000,7,6,6,6,0,86,00,03*0bb1b811
#BESTGPSPOSA,COM1,0,74.0,FINESTEERING,1846,506365.000,00000000,8505,13306;SOL_COMPUTED,SINGLE,41.39058679144,-73.95339955827,3.4764,-32.2000,WGS84,2.7229,2.7854,8.4171,"",0.000,0.000,7,6,6,6,0,86,00,03*db19cadb
#BESTGPSPOSA,COM1,0,74.0,FINESTEERING,1846,506365.500,00000000,8505,13306;SOL_COMPUTED,SINGLE,41.39058654083,-73.95339963487,3.4826,-32.2000,WGS84,2.7237,2.7855,8.4174,"",0.000,0.000,7,6,6,6,0,86,00,03*977477e1
#BESTGPSPOSA,COM1,0,78.0,FINESTEERING,1846,506366.000,00000000,8505,13306;SOL_COMPUTED,SINGLE,41.39058643401,-73.95339972873,3.4500,-32.2000,WGS84,2.7238,2.7855,8.4170,"",0.000,0.000,6,6,6,6,0,86,00,03*23885822
#BESTGPSPOSA,COM1,0,73.0,FINESTEERING,1846,506366.500,00000000,8505,13306;SOL_COMPUTED,SINGLE,41.39058664055,-73.95339971036,3.5370,-32.2000,WGS84,2.7236,2.7854,8.4164,"",0.000,0.000,6,6,6,6,0,86,00,03*78e12c9f
#BESTGPSPOSA,COM1,0,73.0,FINESTEERING,1846,506367.000,00000000,8505,13306;SOL_COMPUTED,SINGLE,41.39058659169,-73.95339970568,3.5710,-32.2000,WGS84,2.7256,2.7859,8.4180,"",0.000,0.000,6,6,6,6,0,86,00,03*99859beb
#BESTGPSPOSA,COM1,0,73.0,FINESTEERING,1846,506367.500,00000000,8505,13306;SOL_COMPUTED,SINGLE,41.39058644910,-73.95339962092,3.5397,-32.2000,WGS84,2.7243,2.7854,8.4161,"",0.000,0.000,6,6,6,6,0,86,00,03*8c97ee21
#BESTGPSPOSA,COM1,0,73.5,FINESTEERING,1846,506368.000,00000000,8505,13306;SOL_COMPUTED,SINGLE,41.39058596343,-73.95339961623,3.4844,-32.2000,WGS84,2.7244,2.7853,8.4157,"",0.000,0.000,7,6,6,6,0,86,00,03*45f4c1cf
#BESTGPSPOSA,COM1,0,73.5,FINESTEERING,1846,506368.500,00000000,8505,13306;SOL_COMPUTED,SINGLE,41.39058581165,-73.95339965034,3.4833,-32.2000,WGS84,2.7237,2.7823,8.3838,"",0.000,0.000,7,6,6,6,0,86,00,03*440ba17f
#BESTGPSPOSA,COM1,0,74.5,FINESTEERING,1846,506369.000,00000000,8505,13306;SOL_COMPUTED,SINGLE,41.39058551746,-73.95339956531,3.3996,-32.2000,WGS84,2.7231,2.7820,8.3829,"",0.000,0.000,7,6,6,6,0,86,00,03*e785c7f0

<OK
[COM1]#RXSTATUSEVENTA,COM1,0,7.5,FINESTEERING,1846,506383.303,004c0008,b967,13306;STATUS,16,SET,"Initial Azimuth Set"*ba1463ec

<OK
[COM1]
<OK
[COM1]#INSPVAA,COM1,0,77.5,FINESTEERING,1846,506384.000,00010000,54e2,13306;1846,506384.000000000,41.39058648762,-73.95339861150,-28.4580,-0.0000,0.0013,0.0022,0.000000000,0.000000000,0.000000000,INS_ALIGNING*5e9f5426
#INSPVAA,COM1,0,74.0,FINESTEERING,1846,506384.500,00010000,54e2,13306;1846,506384.500000000,41.39058095636,-73.95340164485,-30.4003,0.0241,0.0094,-0.0177,0.000000000,0.000000000,0.000000000,INS_ALIGNING*d2ce83dc
#INSPVAA,COM1,0,74.0,FINESTEERING,1846,506385.000,00010000,54e2,13306;1846,506385.000000000,41.39058095636,-73.95340164485,-30.4003,0.0241,0.0094,-0.0177,0.000000000,0.000000000,0.000000000,INS_ALIGNING*7fd8eb1b
#INSPVAA,COM1,0,74.0,FINESTEERING,1846,506385.500,00010000,54e2,13306;1846,506385.500000000,41.39057655176,-73.95340294279,-32.1210,-0.0237,0.0202,0.0611,0.000000000,0.000000000,0.000000000,INS_ALIGNING*80ea7d30
#INSPVAA,COM1,0,76.5,FINESTEERING,1846,506386.000,00010000,54e2,13306;1846,506386.000000000,41.39057655176,-73.95340294279,-32.1210,-0.0237,0.0202,0.0611,0.000000000,0.000000000,0.000000000,INS_ALIGNING*c77e2353
#INSPVAA,COM1,0,75.0,FINESTEERING,1846,506386.500,00010000,54e2,13306;1846,506386.500000000,41.39057623613,-73.95340299811,-32.2736,-0.0137,0.0257,0.0788,0.000000000,0.000000000,0.000000000,INS_ALIGNING*25d137f7
#INSPVAA,COM1,0,75.0,FINESTEERING,1846,506387.000,00010000,54e2,13306;1846,506387.000000000,41.39057623613,-73.95340299811,-32.2736,-0.0137,0.0257,0.0788,0.000000000,0.000000000,0.000000000,INS_ALIGNING*88c75f30
#INSPVAA,COM1,0,75.0,FINESTEERING,1846,506387.500,00010000,54e2,13306;1846,506387.500000000,41.39057644942,-73.95340285174,-32.2230,-0.0501,-0.0156,0.1136,0.000000000,0.000000000,0.000000000,INS_ALIGNING*3e76a10b
#INSPVAA,COM1,0,76.0,FINESTEERING,1846,506388.000,00010000,54e2,13306;1846,506388.000000000,41.39057644942,-73.95340285174,-32.2230,-0.0501,-0.0156,0.1136,0.000000000,0.000000000,0.000000000,INS_ALIGNING*6af5e274
#INSPVAA,COM1,0,75.5,FINESTEERING,1846,506388.500,00010000,54e2,13306;1846,506388.500000000,41.39057652237,-73.95340268077,-32.2617,-0.0663,-0.0110,-0.2356,0.000000000,0.000000000,0.000000000,INS_ALIGNING*319d3d4b
#INSPVAA,COM1,0,75.5,FINESTEERING,1846,506389.000,00010000,54e2,13306;1846,506389.000000000,41.39057652237,-73.95340268077,-32.2617,-0.0663,-0.0110,-0.2356,0.000000000,0.000000000,0.000000000,INS_ALIGNING*f64f38be
#INSPVAA,COM1,0,75.5,FINESTEERING,1846,506389.500,00010000,54e2,13306;1846,506389.500000000,41.39057662985,-73.95340324508,-32.3173,-0.0033,-0.1062,-0.3168,0.384895292,1.708044664,355.000787049,INS_ALIGNMENT_COMPLETE*94ae0ff9
#INSPVAA,COM1,0,77.5,FINESTEERING,1846,506390.000,00000000,54e2,13306;1846,506390.000000000,41.39057661377,-73.95340388058,-32.4755,-0.0026,-0.1053,-0.3158,0.383749237,1.701474439,355.000592072,INS_ALIGNMENT_COMPLETE*f49b25a2
#INSPVAA,COM1,0,75.5,FINESTEERING,1846,506390.500,00000000,54e2,13306;1846,506390.500000000,41.39057660063,-73.95340451420,-32.6332,-0.0019,-0.1063,-0.3167,0.384851116,1.705049322,355.000098287,INS_ALIGNMENT_COMPLETE*4be1cf66
#INSPVAA,COM1,0,75.5,FINESTEERING,1846,506391.000,00000000,54e2,13306;1846,506391.000000000,41.39057659597,-73.95340514997,-32.7913,0.0002,-0.1061,-0.3171,0.383742510,1.700154834,355.000325176,INS_ALIGNMENT_COMPLETE*7ef2c60c
#INSPVAA,COM1,0,75.5,FINESTEERING,1846,506391.500,00000000,54e2,13306;1846,506391.500000000,41.39057668002,-73.95340484580,-32.6484,0.0081,-0.0247,-0.0093,0.384664345,1.699895317,355.001068373,INS_ALIGNMENT_COMPLETE*503d3ffd
#INSPVAA,COM1,0,76.5,FINESTEERING,1846,506392.000,00000000,54e2,13306;1846,506392.000000000,41.39057676715,-73.95340451310,-32.4985,0.0101,-0.0226,-0.0116,0.386454202,1.702198381,355.000183699,INS_ALIGNMENT_COMPLETE*1ec9561c
#INSPVAA,COM1,0,76.5,FINESTEERING,1846,506392.500,00000000,54e2,13306;1846,506392.500000000,41.39057671017,-73.95340431152,-32.4821,0.0006,0.0013,-0.0001,0.387773096,1.698953309,355.000022327,INS_ALIGNMENT_COMPLETE*3d71a5ed
#INSPVAA,COM1,0,78.5,FINESTEERING,1846,506393.000,00000000,54e2,13306;1846,506393.000000000,41.39057668178,-73.95340421333,-32.4770,0.0023,0.0014,-0.0015,0.387919201,1.702814220,355.000000427,INS_ALIGNMENT_COMPLETE*67972474
#INSPVAA,COM1,0,78.0,FINESTEERING,1846,506393.500,00000000,54e2,13306;1846,506393.500000000,41.39057667672,-73.95340417498,-32.4752,0.0008,-0.0006,-0.0006,0.386135685,1.696993047,354.999882828,INS_ALIGNMENT_COMPLETE*2cbfd2cb
#INSPVAA,COM1,0,78.0,FINESTEERING,1846,506394.000,00000000,54e2,13306;1846,506394.000000000,41.39057667876,-73.95340415357,-32.4743,0.0013,0.0003,-0.0009,0.387786873,1.701923991,354.998829381,INS_ALIGNMENT_COMPLETE*7febb01a
#INSPVAA,COM1,0,74.0,FINESTEERING,1846,506394.500,00000000,54e2,13306;1846,506394.500000000,41.39057668422,-73.95340414143,-32.4739,0.0019,-0.0009,0.0002,0.386153992,1.698383840,354.998603818,INS_ALIGNMENT_COMPLETE*0f5584ad
#INSPVAA,COM1,0,74.0,FINESTEERING,1846,506395.000,00000000,54e2,13306;1846,506395.000000000,41.39057669181,-73.95340413458,-32.4737,0.0014,-0.0008,0.0004,0.385907503,1.694401834,355.000438442,INS_ALIGNMENT_COMPLETE*398d1342
#INSPVAA,COM1,0,73.5,FINESTEERING,1846,506395.500,00000000,54e2,13306;1846,506395.500000000,41.39057669982,-73.95340413039,-32.4736,0.0016,0.0005,-0.0012,0.384921427,1.699977010,355.000078938,INS_ALIGNMENT_COMPLETE*c9e1a0c8
#INSPVAA,COM1,0,73.5,FINESTEERING,1846,506396.000,00000000,54e2,13306;1846,506396.000000000,41.39057670843,-73.95340412805,-32.4737,0.0026,-0.0003,-0.0017,0.384745086,1.694009236,354.999549193,INS_ALIGNMENT_COMPLETE*2c7d72b9
#INSPVAA,COM1,0,73.0,FINESTEERING,1846,506396.500,00000000,54e2,13306;1846,506396.500000000,41.39057671698,-73.95340412608,-32.4738,0.0020,0.0012,-0.0016,0.385715911,1.696007598,355.004657140,INS_ALIGNMENT_COMPLETE*261c2886
#INSPVAA,COM1,0,73.0,FINESTEERING,1846,506397.000,00000000,54e2,13306;1846,506397.000000000,41.39057672629,-73.95340412423,-32.4739,0.0039,0.0011,-0.0008,0.385780340,1.694328698,355.005331828,INS_ALIGNMENT_COMPLETE*dfcd2907
#INSPVAA,COM1,0,73.0,FINESTEERING,1846,506397.500,00000000,54e2,13306;1846,506397.500000000,41.39057673528,-73.95340412276,-32.4741,0.0014,0.0005,-0.0019,0.383824841,1.694723889,354.995613116,INS_ALIGNMENT_COMPLETE*95f7237b
#INSPVAA,COM1,0,73.0,FINESTEERING,1846,506398.000,00000000,54e2,13306;1846,506398.000000000,41.39057674448,-73.95340412140,-32.4744,0.0039,0.0004,-0.0002,0.384208406,1.694760898,354.996062995,INS_ALIGNMENT_COMPLETE*4fdb15a1
#INSPVAA,COM1,0,73.0,FINESTEERING,1846,506398.500,00000000,54e2,13306;1846,506398.500000000,41.39057675310,-73.95340412043,-32.4746,0.0016,-0.0010,0.0008,0.382513773,1.692652101,355.053076920,INS_ALIGNMENT_COMPLETE*ff914389
#INSPVAA,COM1,0,79.0,FINESTEERING,1846,506399.000,00000000,54e2,13306;1846,506399.000000000,41.39057676185,-73.95340412043,-32.4748,0.0037,-0.0030,-0.0010,0.383186954,1.695998217,355.054298467,INS_ALIGNMENT_COMPLETE*02136564
#INSPVAA,COM1,0,75.5,FINESTEERING,1846,506399.500,00000000,54e2,13306;1846,506399.500000000,41.39057677013,-73.95340412061,-32.4750,0.0027,-0.0008,0.0005,0.381497528,1.688777447,354.876900582,INS_ALIGNMENT_COMPLETE*e74d5619
#INSPVAA,COM1,0,75.5,FINESTEERING,1846,506400.000,00000000,54e2,13306;1846,506400.000000000,41.39057677862,-73.95340412111,-32.4751,0.0048,-0.0011,-0.0001,0.382593354,1.693064976,354.877658870,INS_ALIGNMENT_COMPLETE*667401b0
#INSPVAA,COM1,0,75.5,FINESTEERING,1846,506400.500,00000000,54e2,13306;1846,506400.500000000,41.39057678653,-73.95340412144,-32.4753,0.0023,-0.0002,-0.0007,0.380805172,1.690566737,354.952640952,INS_ALIGNMENT_COMPLETE*21a4d501
#INSPVAA,COM1,0,75.5,FINESTEERING,1846,506401.000,00000000,54e2,13306;1846,506401.000000000,41.39057679437,-73.95340412189,-32.4755,0.0029,-0.0012,0.0000,0.380667279,1.687418366,354.953542364,INS_ALIGNMENT_COMPLETE*16201b9c
#INSPVAA,COM1,0,75.0,FINESTEERING,1846,506401.500,00000000,54e2,13306;1846,506401.500000000,41.39057680168,-73.95340412236,-32.4757,0.0024,-0.0012,-0.0005,0.381182689,1.691196754,354.932360039,INS_ALIGNMENT_COMPLETE*b538a052
#INSPVAA,COM1,0,75.0,FINESTEERING,1846,506402.000,00000000,54e2,13306;1846,506402.000000000,41.39057680889,-73.95340412324,-32.4759,0.0036,-0.0023,-0.0002,0.381146479,1.682398802,354.932382224,INS_ALIGNMENT_COMPLETE*f4c450bb
#INSPVAA,COM1,0,73.0,FINESTEERING,1846,506402.500,00000000,54e2,13306;1846,506402.500000000,41.39057681553,-73.95340412433,-32.4760,0.0017,-0.0023,-0.0001,0.382442621,1.688230761,354.928068876,INS_ALIGNMENT_COMPLETE*407b9e46
#INSPVAA,COM1,0,73.0,FINESTEERING,1846,506403.000,00000000,54e2,13306;1846,506403.000000000,41.39057682215,-73.95340412594,-32.4761,0.0055,-0.0035,0.0016,0.382531212,1.680355416,354.929274037,INS_ALIGNMENT_COMPLETE*d84b4993
#INSPVAA,COM1,0,73.0,FINESTEERING,1846,506403.500,00000000,54e2,13306;1846,506403.500000000,41.39057682852,-73.95340412754,-32.4763,0.0040,-0.0011,-0.0008,0.383566027,1.688103131,354.924669820,INS_ALIGNMENT_COMPLETE*f48ac871
#INSPVAA,COM1,0,75.5,FINESTEERING,1846,506404.000,00000000,54e2,13306;1846,506404.000000000,41.39057683527,-73.95340412916,-32.4764,0.0072,-0.0014,-0.0007,0.382013972,1.680834408,354.924676377,INS_ALIGNMENT_COMPLETE*4777ec88
#INSPVAA,COM1,0,74.5,FINESTEERING,1846,506404.500,00000000,54e2,13306;1846,506404.500000000,41.39057684178,-73.95340413057,-32.4766,0.0033,-0.0012,-0.0007,0.383281452,1.688027552,354.921998438,INS_ALIGNMENT_COMPLETE*31baca10
#INSPVAA,COM1,0,74.5,FINESTEERING,1846,506405.000,00000000,54e2,13306;1846,506405.000000000,41.39057684851,-73.95340413205,-32.4768,0.0068,-0.0017,-0.0020,0.383711293,1.680559519,354.921963286,INS_ALIGNMENT_COMPLETE*3e524db5
#INSPVAA,COM1,0,74.5,FINESTEERING,1846,506405.500,00000000,54e2,13306;1846,506405.500000000,41.39057685497,-73.95340413342,-32.4769,0.0029,-0.0005,-0.0010,0.384311450,1.685386577,354.920358685,INS_ALIGNMENT_COMPLETE*9ded7ae9
#INSPVAA,COM1,0,75.0,FINESTEERING,1846,506406.000,00000000,54e2,13306;1846,506406.000000000,41.39057686165,-73.95340413478,-32.4771,0.0078,-0.0016,0.0011,0.383801236,1.682439648,354.920164908,INS_ALIGNMENT_COMPLETE*0504cdc6
#INSPVAA,COM1,0,75.0,FINESTEERING,1846,506406.500,00000000,54e2,13306;1846,506406.500000000,41.39057686809,-73.95340413601,-32.4772,0.0031,-0.0007,0.0012,0.383420799,1.684747815,354.919041011,INS_ALIGNMENT_COMPLETE*2d2bf371
#INSPVAA,COM1,0,75.5,FINESTEERING,1846,506407.000,00000000,54e2,13306;1846,506407.000000000,41.39057687480,-73.95340413725,-32.4773,0.0076,-0.0012,0.0028,0.382098439,1.681916395,354.919034476,INS_ALIGNMENT_COMPLETE*8a848df8
#INSPVAA,COM1,0,73.5,FINESTEERING,1846,506407.500,00000000,54e2,13306;1846,506407.500000000,41.39057688144,-73.95340413843,-32.4774,0.0045,-0.0005,0.0016,0.382215231,1.684547051,354.918232157,INS_ALIGNMENT_COMPLETE*24c74f98
#INSPVAA,COM1,0,73.5,FINESTEERING,1846,506408.000,00000000,54e2,13306;1846,506408.000000000,41.39057688847,-73.95340413962,-32.4774,0.0088,-0.0007,0.0022,0.382976807,1.682660871,354.918981229,INS_ALIGNMENT_COMPLETE*7168c2ca
#INSPVAA,COM1,0,73.5,FINESTEERING,1846,506408.500,00000000,54e2,13306;1846,506408.500000000,41.39057689531,-73.95340414074,-32.4774,0.0037,-0.0012,0.0005,0.381163778,1.682569225,354.918749621,INS_ALIGNMENT_COMPLETE*8dcd8167
#INSPVAA,COM1,0,75.0,FINESTEERING,1846,506409.000,00000000,54e2,13306;1846,506409.000000000,41.39057690233,-73.95340414201,-32.4774,0.0074,-0.0024,0.0012,0.382477688,1.684369658,354.918300751,INS_ALIGNMENT_COMPLETE*719aa6fe
#INSPVAA,COM1,0,74.5,FINESTEERING,1846,506409.500,00000000,54e2,13306;1846,506409.500000000,41.39057690916,-73.95340414325,-32.4774,0.0035,-0.0012,0.0022,0.382325973,1.679748545,354.917359878,INS_ALIGNMENT_COMPLETE*b524aa94
#INSPVAA,COM1,0,74.5,FINESTEERING,1846,506410.000,00000000,54e2,13306;1846,506410.000000000,41.39057691616,-73.95340414475,-32.4774,0.0073,-0.0032,0.0008,0.382704556,1.685096303,354.918396584,INS_ALIGNMENT_COMPLETE*bb9fbdbd
#INSPVAA,COM1,0,74.5,FINESTEERING,1846,506410.500,00000000,54e2,13306;1846,506410.500000000,41.39057692300,-73.95340414623,-32.4774,0.0045,-0.0017,0.0011,0.382127198,1.679782044,354.918950331,INS_ALIGNMENT_COMPLETE*cfd3923c
#INSPVAA,COM1,0,75.0,FINESTEERING,1846,506411.000,00000000,54e2,13306;1846,506411.000000000,41.39057693004,-73.95340414783,-32.4774,0.0070,-0.0021,0.0010,0.382221589,1.683997805,354.919720760,INS_ALIGNMENT_COMPLETE*9e7603ed
#INSPVAA,COM1,0,75.0,FINESTEERING,1846,506411.500,00000000,54e2,13306;1846,506411.500000000,41.39057693692,-73.95340414934,-32.4774,0.0055,-0.0014,0.0001,0.387985134,1.681939207,354.915161441,INS_ALIGNMENT_COMPLETE*0b3fb63e
#INSPVAA,COM1,0,76.5,FINESTEERING,1846,506412.000,00000000,54e2,13306;1846,506412.000000000,41.39057694397,-73.95340415097,-32.4774,0.0061,-0.0026,0.0003,0.380571377,1.682787105,354.921822905,INS_ALIGNMENT_COMPLETE*0ecbd1a8
#INSPVAA,COM1,0,74.0,FINESTEERING,1846,506412.500,00000000,54e2,13306;1846,506412.500000000,41.39057695086,-73.95340415255,-32.4774,0.0040,-0.0015,-0.0006,0.383279513,1.683384969,354.921168013,INS_ALIGNMENT_COMPLETE*8c98a389
#INSPVAA,COM1,0,74.0,FINESTEERING,1846,506413.000,00000000,54e2,13306;1846,506413.000000000,41.39057695788,-73.95340415414,-32.4774,0.0050,-0.0011,-0.0003,0.381550255,1.682519074,354.922568325,INS_ALIGNMENT_COMPLETE*14ba1e6b
#INSPVAA,COM1,0,74.0,FINESTEERING,1846,506413.500,00000000,54e2,13306;1846,506413.500000000,41.39057696482,-73.95340415556,-32.4774,0.0051,-0.0006,-0.0011,0.381854819,1.682958612,354.922842657,INS_ALIGNMENT_COMPLETE*b2db17f9
#INSPVAA,COM1,0,75.0,FINESTEERING,1846,506414.000,00000000,54e2,13306;1846,506414.000000000,41.39057697200,-73.95340415687,-32.4775,0.0077,-0.0007,-0.0013,0.381006870,1.681154768,354.923775799,INS_ALIGNMENT_COMPLETE*d5d57512
#INSPVAA,COM1,0,74.0,FINESTEERING,1846,506414.500,00000000,54e2,13306;1846,506414.500000000,41.39057697905,-73.95340415805,-32.4775,0.0037,-0.0006,-0.0004,0.380366968,1.684013509,354.924666668,INS_ALIGNMENT_COMPLETE*e09ff58a
#INSPVAA,COM1,0,74.0,FINESTEERING,1846,506415.000,00000000,54e2,13306;1846,506415.000000000,41.39057698618,-73.95340415927,-32.4775,0.0055,-0.0027,-0.0005,0.379322671,1.680405260,354.928327229,INS_ALIGNMENT_COMPLETE*396b0758
#INSPVAA,COM1,0,74.0,FINESTEERING,1846,506415.500,00000000,54e2,13306;1846,506415.500000000,41.39057699318,-73.95340416045,-32.4776,0.0047,-0.0011,-0.0005,0.380217452,1.685600011,354.947183518,INS_ALIGNMENT_COMPLETE*a731d031
#INSPVAA,COM1,0,74.5,FINESTEERING,1846,506416.000,00000000,54e2,13306;1846,506416.000000000,41.39057700038,-73.95340416171,-32.4776,0.0074,-0.0023,-0.0009,0.378501672,1.679958784,354.947753597,INS_ALIGNMENT_COMPLETE*ca52782d
#INSPVAA,COM1,0,74.5,FINESTEERING,1846,506416.500,00000000,54e2,13306;1846,506416.500000000,41.39057700745,-73.95340416289,-32.4777,0.0030,-0.0009,-0.0009,0.380598585,1.685938503,354.946952927,INS_ALIGNMENT_COMPLETE*2a2e4ef1
#INSPVAA,COM1,0,74.5,FINESTEERING,1846,506417.000,00000000,54e2,13306;1846,506417.000000000,41.39057701466,-73.95340416405,-32.4778,0.0071,-0.0018,-0.0021,0.378902004,1.677398103,354.946171361,INS_ALIGNMENT_COMPLETE*9117fa80
#INSPVAA,COM1,0,73.0,FINESTEERING,1846,506417.500,00000000,54e2,13306;1846,506417.500000000,41.39057702182,-73.95340416514,-32.4778,0.0042,-0.0008,-0.0006,0.379690829,1.683011652,354.946445228,INS_ALIGNMENT_COMPLETE*b00ffb71
#INSPVAA,COM1,0,73.0,FINESTEERING,1846,506418.000,00000000,54e2,13306;1846,506418.000000000,41.39057702914,-73.95340416628,-32.4779,0.0068,-0.0027,0.0001,0.378445668,1.679429941,354.946732556,INS_ALIGNMENT_COMPLETE*4dd74174
#INSPVAA,COM1,0,73.0,FINESTEERING,1846,506418.500,00000000,54e2,13306;1846,506418.500000000,41.39057703635,-73.95340416736,-32.4780,0.0031,-0.0013,0.0003,0.378522770,1.678576507,354.945668406,INS_ALIGNMENT_COMPLETE*1c86de97
#INSPVAA,COM1,0,77.0,FINESTEERING,1846,506419.000,00000000,54e2,13306;1846,506419.000000000,41.39057704368,-73.95340416845,-32.4780,0.0070,-0.0021,-0.0002,0.378695042,1.682224344,354.945732971,INS_ALIGNMENT_COMPLETE*4641d560
#INSPVAA,COM1,0,73.5,FINESTEERING,1846,506419.500,00000000,54e2,13306;1846,506419.500000000,41.39057705089,-73.95340416945,-32.4780,0.0042,-0.0010,0.0006,0.378142367,1.677058171,354.946171739,INS_ALIGNMENT_COMPLETE*626f89bf
#INSPVAA,COM1,0,73.5,FINESTEERING,1846,506420.000,00000000,54e2,13306;1846,506420.000000000,41.39057705823,-73.95340417041,-32.4781,0.0062,-0.0007,0.0006,0.378607978,1.681657710,354.946690539,INS_ALIGNMENT_COMPLETE*99b0c0f2
#INSPVAA,COM1,0,73.5,FINESTEERING,1846,506420.500,00000000,54e2,13306;1846,506420.500000000,41.39057706545,-73.95340417126,-32.4781,0.0040,-0.0003,0.0005,0.377841772,1.677831202,354.946798932,INS_ALIGNMENT_COMPLETE*66d12b68
#INSPVAA,COM1,0,77.5,FINESTEERING,1846,506421.000,00000000,54e2,13306;1846,506421.000000000,41.39057707279,-73.95340417207,-32.4781,0.0059,-0.0019,0.0005,0.377160843,1.681228500,354.946799557,INS_ALIGNMENT_COMPLETE*44262777
#INSPVAA,COM1,0,75.0,FINESTEERING,1846,506421.500,00000000,54e2,13306;1846,506421.500000000,41.39057708003,-73.95340417288,-32.4781,0.0042,-0.0017,0.0007,0.377776878,1.676892522,354.947100273,INS_ALIGNMENT_COMPLETE*386658dd
#INSPVAA,COM1,0,75.0,FINESTEERING,1846,506422.000,00000000,54e2,13306;1846,506422.000000000,41.39057708740,-73.95340417379,-32.4781,0.0063,-0.0029,0.0003,0.377114786,1.679198553,354.947205698,INS_ALIGNMENT_COMPLETE*29fc7a99
#INSPVAA,COM1,0,75.0,FINESTEERING,1846,506422.500,00000000,54e2,13306;1846,506422.500000000,41.39057709466,-73.95340417465,-32.4781,0.0043,-0.0016,0.0011,0.377874152,1.675951991,354.946353657,INS_ALIGNMENT_COMPLETE*5678b1e5
#INSPVAA,COM1,0,75.5,FINESTEERING,1846,506423.000,00000000,54e2,13306;1846,506423.000000000,41.39057710202,-73.95340417554,-32.4781,0.0063,-0.0018,0.0007,0.378594960,1.678536774,354.946759394,INS_ALIGNMENT_COMPLETE*04fd56f9
#INSPVAA,COM1,0,74.5,FINESTEERING,1846,506423.500,00000000,54e2,13306;1846,506423.500000000,41.39057710932,-73.95340417635,-32.4781,0.0057,-0.0006,-0.0015,0.377961388,1.673873302,354.947105096,INS_ALIGNMENT_COMPLETE*48e1ad5e
#INSPVAA,COM1,0,74.5,FINESTEERING,1846,506424.000,00000000,54e2,13306;1846,506424.000000000,41.39057711677,-73.95340417716,-32.4781,0.0071,-0.0023,-0.0012,0.377976064,1.676570095,354.947595636,INS_ALIGNMENT_COMPLETE*1e1a28ab
#INSPVAA,COM1,0,74.5,FINESTEERING,1846,506424.500,00000000,54e2,13306;1846,506424.500000000,41.39057712418,-73.95340417792,-32.4781,0.0054,-0.0017,0.0009,0.377984855,1.673630120,354.947507998,INS_ALIGNMENT_COMPLETE*0ec070fd
#INSPVAA,COM1,0,75.5,FINESTEERING,1846,506425.000,00000000,54e2,13306;1846,506425.000000000,41.39057713181,-73.95340417878,-32.4781,0.0083,-0.0035,-0.0001,0.377368016,1.674350728,354.947979166,INS_ALIGNMENT_COMPLETE*2c507427
#INSPVAA,COM1,0,75.5,FINESTEERING,1846,506425.500,00000000,54e2,13306;1846,506425.500000000,41.39057713940,-73.95340417957,-32.4781,0.0049,-0.0010,0.0013,0.378364229,1.674315571,354.947687654,INS_ALIGNMENT_COMPLETE*6874cb4c
#INSPVAA,COM1,0,77.0,FINESTEERING,1846,506426.000,00000000,54e2,13306;1846,506426.000000000,41.39057714716,-73.95340418038,-32.4780,0.0082,-0.0027,0.0029,0.375483249,1.672539392,354.946932595,INS_ALIGNMENT_COMPLETE*2ff37de5
#INSPVAA,COM1,0,76.0,FINESTEERING,1846,506426.500,00000000,54e2,13306;1846,506426.500000000,41.39057715485,-73.95340418117,-32.4780,0.0043,-0.0027,0.0010,0.377024244,1.674934044,354.946965335,INS_ALIGNMENT_COMPLETE*08182c84
#INSPVAA,COM1,0,76.0,FINESTEERING,1846,506427.000,00000000,54e2,13306;1846,506427.000000000,41.39057716262,-73.95340418218,-32.4779,0.0057,-0.0056,0.0013,0.375374603,1.671254199,354.947920785,INS_ALIGNMENT_COMPLETE*02dfbc84
#INSPVAA,COM1,0,75.5,FINESTEERING,1846,506427.500,00000000,54e2,13306;1846,506427.500000000,41.39057717031,-73.95340418329,-32.4779,0.0053,-0.0048,0.0011,0.376925961,1.675069367,354.945532284,INS_ALIGNMENT_COMPLETE*4fa62b6b
#INSPVAA,COM1,0,75.5,FINESTEERING,1846,506428.000,00000000,54e2,13306;1846,506428.000000000,41.39057717817,-73.95340418477,-32.4778,0.0080,-0.0070,-0.0009,0.374901165,1.670600973,354.947368826,INS_ALIGNMENT_COMPLETE*65cb9fa0
#INSPVAA,COM1,0,75.5,FINESTEERING,1846,506428.500,00000000,54e2,13306;1846,506428.500000000,41.39057718599,-73.95340418631,-32.4778,0.0055,-0.0028,-0.0012,0.376399024,1.674200250,354.947738041,INS_ALIGNMENT_COMPLETE*c993ea9b
#INSPVAA,COM1,0,77.0,FINESTEERING,1846,506429.000,00000000,54e2,13306;1846,506429.000000000,41.39057719400,-73.95340418799,-32.4777,0.0085,-0.0042,-0.0007,0.375315271,1.670496609,354.947293671,INS_ALIGNMENT_COMPLETE*7b8cb475
#INSPVAA,COM1,0,74.0,FINESTEERING,1846,506429.500,00000000,54e2,13306;1846,506429.500000000,41.39057720194,-73.95340418965,-32.4777,0.0047,-0.0021,0.0011,0.378485081,1.672848741,354.948677591,INS_ALIGNMENT_COMPLETE*a7549f41
#INSPVAA,COM1,0,74.0,FINESTEERING,1846,506430.000,00000000,54e2,13306;1846,506430.000000000,41.39057720995,-73.95340419134,-32.4776,0.0065,-0.0021,0.0013,0.377494853,1.671122354,354.947817077,INS_ALIGNMENT_COMPLETE*477f0132
#INSPVAA,COM1,0,73.5,FINESTEERING,1846,506430.500,00000000,54e2,13306;1846,506430.500000000,41.39057721789,-73.95340419301,-32.4776,0.0044,-0.0022,0.0008,0.377147844,1.669400523,354.948126052,INS_ALIGNMENT_COMPLETE*efd3b682
#INSPVAA,COM1,0,73.5,FINESTEERING,1846,506431.000,00000000,54e2,13306;1846,506431.000000000,41.39057722588,-73.95340419471,-32.4775,0.0058,-0.0030,0.0009,0.377123309,1.671034693,354.947766694,INS_ALIGNMENT_COMPLETE*6df8edc3
#INSPVAA,COM1,0,73.5,FINESTEERING,1846,506431.500,00000000,54e2,13306;1846,506431.500000000,41.39057723376,-73.95340419639,-32.4774,0.0042,-0.0028,0.0006,0.377218708,1.666559749,354.947638298,INS_ALIGNMENT_COMPLETE*05a97afa
#INSPVAA,COM1,0,80.0,FINESTEERING,1846,506432.000,00000000,54e2,13306;1846,506432.000000000,41.39057724173,-73.95340419823,-32.4773,0.0069,-0.0050,-0.0009,0.377753330,1.668864157,354.948007991,INS_ALIGNMENT_COMPLETE*f27119c4
#INSPVAA,COM1,0,75.0,FINESTEERING,1846,506432.500,00000000,54e2,13306;1846,506432.500000000,41.39057724962,-73.95340420014,-32.4773,0.0040,-0.0041,-0.0010,0.376356229,1.668219972,354.948074587,INS_ALIGNMENT_COMPLETE*cfd384e9
#INSPVAA,COM1,0,75.0,FINESTEERING,1846,506433.000,00000000,54e2,13306;1846,506433.000000000,41.39057725765,-73.95340420234,-32.4772,0.0086,-0.0075,-0.0008,0.377227832,1.664199794,354.948374576,INS_ALIGNMENT_COMPLETE*7c532c81
#INSPVAA,COM1,0,75.0,FINESTEERING,1846,506433.500,00000000,54e2,13306;1846,506433.500000000,41.39057726565,-73.95340420461,-32.4771,0.0056,-0.0037,0.0008,0.378597605,1.669273643,354.947304992,INS_ALIGNMENT_COMPLETE*ad95dca0
#INSPVAA,COM1,0,78.5,FINESTEERING,1846,506434.000,00000000,54e2,13306;1846,506434.000000000,41.39057727379,-73.95340420706,-32.4771,0.0077,-0.0047,-0.0005,0.376998570,1.670098342,354.947406702,INS_ALIGNMENT_COMPLETE*b578254d
#INSPVAA,COM1,0,77.0,FINESTEERING,1846,506434.500,00000000,54e2,13306;1846,506434.500000000,41.39057728187,-73.95340420952,-32.4770,0.0043,-0.0030,0.0004,0.376429455,1.667032266,354.947526482,INS_ALIGNMENT_COMPLETE*fa9160f1
#INSPVAA,COM1,0,77.0,FINESTEERING,1846,506435.000,00000000,54e2,13306;1846,506435.000000000,41.39057729007,-73.95340421209,-32.4769,0.0089,-0.0046,0.0000,0.378112384,1.665860396,354.946853144,INS_ALIGNMENT_COMPLETE*9da961ed
#INSPVAA,COM1,0,75.5,FINESTEERING,1846,506435.500,00000000,54e2,13306;1846,506435.500000000,41.39057729821,-73.95340421469,-32.4768,0.0050,-0.0029,0.0005,0.378650212,1.671354148,354.946400182,INS_ALIGNMENT_COMPLETE*d9926763
#INSPVAA,COM1,0,75.5,FINESTEERING,1846,506436.000,00000000,54e2,13306;1846,506436.000000000,41.39057730649,-73.95340421744,-32.4767,0.0085,-0.0049,0.0012,0.377849014,1.664788620,354.946347540,INS_ALIGNMENT_COMPLETE*4ddc1fba
#INSPVAA,COM1,0,75.5,FINESTEERING,1846,506436.500,00000000,54e2,13306;1846,506436.500000000,41.39057731474,-73.95340422019,-32.4767,0.0057,-0.0027,-0.0005,0.380098433,1.669773181,354.946065449,INS_ALIGNMENT_COMPLETE*314b0766
#INSPVAA,COM1,0,76.0,FINESTEERING,1846,506437.000,00000000,54e2,13306;1846,506437.000000000,41.39057732312,-73.95340422303,-32.4766,0.0077,-0.0036,-0.0000,0.376811052,1.667100767,354.945388741,INS_ALIGNMENT_COMPLETE*70c4b61d
#INSPVAA,COM1,0,75.5,FINESTEERING,1846,506437.500,00000000,54e2,13306;1846,506437.500000000,41.39057733146,-73.95340422579,-32.4765,0.0053,-0.0011,0.0008,0.378400503,1.665901531,354.945411899,INS_ALIGNMENT_COMPLETE*bc6029a7
#INSPVAA,COM1,0,75.5,FINESTEERING,1846,506438.000,00000000,54e2,13306;1846,506438.000000000,41.39057733991,-73.95340422852,-32.4764,0.0085,-0.0013,0.0000,0.379712510,1.668778271,354.945652117,INS_ALIGNMENT_COMPLETE*66d9aaf1
#INSPVAA,COM1,0,74.5,FINESTEERING,1846,506438.500,00000000,54e2,13306;1846,506438.500000000,41.39057734829,-73.95340423121,-32.4763,0.0042,-0.0017,-0.0006,0.379185969,1.668360985,354.947082755,INS_ALIGNMENT_COMPLETE*b8230ead
#INSPVAA,COM1,0,74.5,FINESTEERING,1846,506439.000,00000000,54e2,13306;1846,506439.000000000,41.39057735676,-73.95340423395,-32.4762,0.0086,-0.0032,0.0003,0.377858709,1.664432824,354.948385123,INS_ALIGNMENT_COMPLETE*4ca32ab7
#INSPVAA,COM1,0,74.5,FINESTEERING,1846,506439.500,00000000,54e2,13306;1846,506439.500000000,41.39057736516,-73.95340423667,-32.4762,0.0036,-0.0018,-0.0002,0.383824315,1.670036008,354.948258580,INS_ALIGNMENT_COMPLETE*8fa66906
#INSPVAA,COM1,0,75.5,FINESTEERING,1846,506440.000,00000000,54e2,13306;1846,506440.000000000,41.39057737366,-73.95340423947,-32.4761,0.0074,-0.0033,0.0006,0.384475664,1.666844134,354.949708376,INS_ALIGNMENT_COMPLETE*c9fcdadf
#INSPVAA,COM1,0,74.0,FINESTEERING,1846,506440.500,00000000,54e2,13306;1846,506440.500000000,41.39057738210,-73.95340424225,-32.4760,0.0057,-0.0019,0.0025,0.386460303,1.666440822,354.949644037,INS_ALIGNMENT_COMPLETE*34394cf4
#INSPVAA,COM1,0,74.0,FINESTEERING,1846,506441.000,00000000,54e2,13306;1846,506441.000000000,41.39057739064,-73.95340424508,-32.4759,0.0082,-0.0042,0.0031,0.390049664,1.670161396,354.946658780,INS_ALIGNMENT_COMPLETE*ad1b6704
#INSPVAA,COM1,0,74.0,FINESTEERING,1846,506441.500,00000000,54e2,13306;1846,506441.500000000,41.39057821335,-73.95340452665,-32.4642,0.0105,-0.0067,0.0054,0.384733927,1.662541451,354.949244645,INS_ALIGNMENT_COMPLETE*0e750cf1
#INSPVAA,COM1,0,74.0,FINESTEERING,1846,506442.000,00000000,54e2,13306;1846,506442.000000000,41.39057821609,-73.95340454581,-32.4628,0.0133,-0.0088,0.0042,0.385252971,1.665749386,354.950342304,INS_ALIGNMENT_COMPLETE*ee1c743d
#INSPVAA,COM1,0,74.0,FINESTEERING,1846,506442.500,00000000,54e2,13306;1846,506442.500000000,41.39057823140,-73.95340457859,-32.4614,0.0161,-0.0108,0.0047,0.383459858,1.662345334,354.951460939,INS_ALIGNMENT_COMPLETE*ec10f0eb
#INSPVAA,COM1,0,76.5,FINESTEERING,1846,506443.000,00000000,54e2,13306;1846,506443.000000000,41.39057826384,-73.95340462655,-32.4600,0.0211,-0.0140,0.0050,0.383372795,1.660668101,354.952348599,INS_ALIGNMENT_COMPLETE*1f7d6fb4
#INSPVAA,COM1,0,76.0,FINESTEERING,1846,506443.500,00000000,54e2,13306;1846,506443.500000000,41.39057829156,-73.95340467234,-32.4594,0.0204,-0.0139,0.0028,0.384776500,1.663348291,354.951938606,INS_ALIGNMENT_COMPLETE*bc7eabed
#INSPVAA,COM1,0,76.0,FINESTEERING,1846,506444.000,00000000,54e2,13306;1846,506444.000000000,41.39057833823,-73.95340473147,-32.4590,0.0264,-0.0158,0.0034,0.385223850,1.657813266,354.951521929,INS_ALIGNMENT_COMPLETE*4bc35503
#INSPVAA,COM1,0,75.0,FINESTEERING,1846,506444.500,00000000,54e2,13306;1846,506444.500000000,41.39057836390,-73.95340476862,-32.4575,0.0264,-0.0150,0.0038,0.386228637,1.663092364,354.953780256,INS_ALIGNMENT_COMPLETE*c82dde26
#INSPVAA,COM1,0,75.0,FINESTEERING,1846,506445.000,00000000,54e2,13306;1846,506445.000000000,41.39057840714,-73.95340481117,-32.4563,0.0301,-0.0160,0.0031,0.383616431,1.659043084,354.953880561,INS_ALIGNMENT_COMPLETE*0afed27d
#INSPVAA,COM1,0,73.0,FINESTEERING,1846,506445.500,00000000,54e2,13306;1846,506445.500000000,41.39057849065,-73.95340486495,-32.4547,0.0301,-0.0146,0.0027,0.386150125,1.661691593,354.952622959,INS_ALIGNMENT_COMPLETE*8e04e936
#INSPVAA,COM1,0,73.0,FINESTEERING,1846,506446.000,00000000,54e2,13306;1846,506446.000000000,41.39057859596,-73.95340492914,-32.4534,0.0336,-0.0161,0.0018,0.381655422,1.659924329,354.955437805,INS_ALIGNMENT_COMPLETE*b20ea6be
#INSPVAA,COM1,0,73.0,FINESTEERING,1846,506446.500,00000000,54e2,13306;1846,506446.500000000,41.39057867697,-73.95340497375,-32.4523,0.0324,-0.0158,0.0003,0.383633146,1.657101977,354.955650113,INS_ALIGNMENT_COMPLETE*fd9c7575
#INSPVAA,COM1,0,74.0,FINESTEERING,1846,506447.000,00000000,54e2,13306;1846,506447.000000000,41.39057877191,-73.95340503115,-32.4512,0.0351,-0.0179,0.0015,0.383262208,1.660265987,354.960242239,INS_ALIGNMENT_COMPLETE*494f575d
