8,INÕ1%959Q}=5A1Q©b7882892

<OK
[COM1]#RXSTATUSEVENTA,COM1,0,78.0,FINESTEERING,1846,572861.420,00014000,b967,13306;STATUS,16,SET,"Initial Azimuth Set"*0816231f

<OK
[COM1]
<OK
[COM1]#INSPVAA,COM1,0,78.0,FINESTEERING,1846,572862.000,00014000,54e2,13306;1846,572862.000000000,41.39053798003,-73.95336900775,-30.6846,0.0236,-0.0453,0.0087,0.000000000,0.000000000,0.000000000,INS_ALIGNING*48cab6ff
#INSPVAA,COM1,0,78.0,FINESTEERING,1846,572862.500,00014000,54e2,13306;1846,572862.500000000,41.39053900079,-73.95336840371,-30.3319,0.0398,-0.0188,-0.0456,0.000000000,0.000000000,0.000000000,INS_ALIGNING*d5de780f
#INSPVAA,COM1,0,78.5,FINESTEERING,1846,572863.000,00014000,54e2,13306;1846,572863.000000000,41.39053900079,-73.95336840371,-30.3319,0.0398,-0.0188,-0.0456,0.000000000,0.000000000,0.000000000,INS_ALIGNING*44e78b67
#INSPVAA,COM1,0,78.5,FINESTEERING,1846,572863.500,00014000,54e2,13306;1846,572863.500000000,41.39053891920,-73.95336866811,-30.2813,0.0001,-0.0142,-0.0297,0.000000000,0.000000000,0.000000000,INS_ALIGNING*1b550890
#INSPVAA,COM1,0,82.5,FINESTEERING,1846,572864.000,00014000,54e2,13306;1846,572864.000000000,41.39053891920,-73.95336866811,-30.2813,0.0001,-0.0142,-0.0297,0.000000000,0.000000000,0.000000000,INS_ALIGNING*615acf71
#INSPVAA,COM1,0,80.0,FINESTEERING,1846,572864.500,00014000,54e2,13306;1846,572864.500000000,41.39053927967,-73.95336841970,-30.3094,-0.0210,-0.0302,0.0239,0.000000000,0.000000000,0.000000000,INS_ALIGNING*d57babcb
#INSPVAA,COM1,0,80.0,FINESTEERING,1846,572865.000,00014000,54e2,13306;1846,572865.000000000,41.39053927967,-73.95336841970,-30.3094,-0.0210,-0.0302,0.0239,0.000000000,0.000000000,0.000000000,INS_ALIGNING*d0d6eab0
#INSPVAA,COM1,0,80.0,FINESTEERING,1846,572865.500,00014000,54e2,13306;1846,572865.500000000,41.39053916225,-73.95336839543,-30.2180,-0.0179,-0.0182,0.0427,0.000000000,0.000000000,0.000000000,INS_ALIGNING*19760501
#INSPVAA,COM1,0,81.0,FINESTEERING,1846,572866.000,00014000,54e2,13306;1846,572866.000000000,41.39053916225,-73.95336839543,-30.2180,-0.0179,-0.0182,0.0427,0.000000000,0.000000000,0.000000000,INS_ALIGNING*6561eecc
#INSPVAA,COM1,0,79.0,FINESTEERING,1846,572866.500,00014000,54e2,13306;1846,572866.500000000,41.39054004750,-73.95336772137,-30.3668,-0.0271,-0.0259,-0.0017,0.000000000,0.000000000,0.000000000,INS_ALIGNING*f175b65d
#INSPVAA,COM1,0,79.0,FINESTEERING,1846,572867.000,00014000,54e2,13306;1846,572867.000000000,41.39054004750,-73.95336772137,-30.3668,-0.0271,-0.0259,-0.0017,0.000000000,0.000000000,0.000000000,INS_ALIGNING*36a7b3a8
#INSPVAA,COM1,0,79.0,FINESTEERING,1846,572867.500,00014000,54e2,13306;1846,572867.500000000,41.39054013813,-73.95336759124,-30.2839,0.0241,-0.0129,0.0362,-0.546623457,6.448929625,9.999168336,INS_ALIGNMENT_COMPLETE*d392a233
#INSPVAA,COM1,0,79.0,FINESTEERING,1846,572868.000,00004000,54e2,13306;1846,572868.000000000,41.39054024657,-73.95336767379,-30.2660,0.0246,-0.0143,0.0367,-0.548796915,6.448011390,9.999363917,INS_ALIGNMENT_COMPLETE*37e5080e
#INSPVAA,COM1,0,79.0,FINESTEERING,1846,572868.500,00004000,54e2,13306;1846,572868.500000000,41.39054036132,-73.95336776217,-30.2476,0.0262,-0.0149,0.0356,-0.550266805,6.448480130,9.998842791,INS_ALIGNMENT_COMPLETE*19af48fa
#INSPVAA,COM1,0,81.0,FINESTEERING,1846,572869.000,00004000,54e2,13306;1846,572869.000000000,41.39054048342,-73.95336785575,-30.2295,0.0283,-0.0165,0.0368,-0.551892271,6.448179623,9.999041845,INS_ALIGNMENT_COMPLETE*7c8b0e0a
#INSPVAA,COM1,0,81.0,FINESTEERING,1846,572869.500,00004000,54e2,13306;1846,572869.500000000,41.39053997093,-73.95336808790,-30.1850,0.0018,-0.0012,-0.0002,-0.548778540,6.450455900,9.999356982,INS_ALIGNMENT_COMPLETE*424d9eb4
#INSPVAA,COM1,0,81.5,FINESTEERING,1846,572870.000,00004000,54e2,13306;1846,572870.000000000,41.39053971290,-73.95336820953,-30.1622,0.0021,-0.0023,0.0002,-0.551948658,6.450099154,9.999515877,INS_ALIGNMENT_COMPLETE*a3e82c15
#INSPVAA,COM1,0,78.5,FINESTEERING,1846,572870.500,00004000,54e2,13306;1846,572870.500000000,41.39053961651,-73.95336824933,-30.1522,0.0000,-0.0003,0.0000,-0.552439313,6.450167726,9.999425712,INS_ALIGNMENT_COMPLETE*b113e7f3
#INSPVAA,COM1,0,78.5,FINESTEERING,1846,572871.000,00004000,54e2,13306;1846,572871.000000000,41.39053956318,-73.95336826934,-30.1455,0.0004,-0.0014,0.0018,-0.555305370,6.450776736,9.999300152,INS_ALIGNMENT_COMPLETE*71192706
#INSPVAA,COM1,0,78.5,FINESTEERING,1846,572871.500,00004000,54e2,13306;1846,572871.500000000,41.39053952577,-73.95336828618,-30.1394,0.0008,0.0002,0.0012,-0.556034644,6.449561319,9.998912667,INS_ALIGNMENT_COMPLETE*bf2dd48c
#INSPVAA,COM1,0,79.0,FINESTEERING,1846,572872.000,00004000,54e2,13306;1846,572872.000000000,41.39053949742,-73.95336830299,-30.1337,0.0018,-0.0013,0.0013,-0.558009294,6.449355536,9.998967022,INS_ALIGNMENT_COMPLETE*a0546474
#INSPVAA,COM1,0,79.0,FINESTEERING,1846,572872.500,00004000,54e2,13306;1846,572872.500000000,41.39053947294,-73.95336832032,-30.1280,0.0022,-0.0004,0.0001,-0.560075348,6.449809443,10.000671448,INS_ALIGNMENT_COMPLETE*3851bdb2
#INSPVAA,COM1,0,79.5,FINESTEERING,1846,572873.000,00004000,54e2,13306;1846,572873.000000000,41.39053945205,-73.95336833812,-30.1223,0.0045,-0.0002,0.0015,-0.561610217,6.448843538,10.001064738,INS_ALIGNMENT_COMPLETE*6380f938
#INSPVAA,COM1,0,77.5,FINESTEERING,1846,572873.500,00004000,54e2,13306;1846,572873.500000000,41.39053943329,-73.95336835546,-30.1168,0.0018,-0.0014,0.0001,-0.563942562,6.449862677,9.996027989,INS_ALIGNMENT_COMPLETE*76e8b880
#INSPVAA,COM1,0,77.5,FINESTEERING,1846,572874.000,00004000,54e2,13306;1846,572874.000000000,41.39053941655,-73.95336837300,-30.1116,0.0031,-0.0022,0.0001,-0.564422226,6.448903842,9.995395993,INS_ALIGNMENT_COMPLETE*a22ea72d
#INSPVAA,COM1,0,77.5,FINESTEERING,1846,572874.500,00004000,54e2,13306;1846,572874.500000000,41.39053940119,-73.95336838975,-30.1066,0.0014,-0.0010,0.0006,-0.566130449,6.449004714,10.037073245,INS_ALIGNMENT_COMPLETE*b956458b
#INSPVAA,COM1,0,80.0,FINESTEERING,1846,572875.000,00004000,54e2,13306;1846,572875.000000000,41.39053938719,-73.95336840591,-30.1017,0.0024,-0.0017,0.0018,-0.567736491,6.448200103,10.037033983,INS_ALIGNMENT_COMPLETE*63026637
#INSPVAA,COM1,0,78.0,FINESTEERING,1846,572875.500,00004000,54e2,13306;1846,572875.500000000,41.39053937389,-73.95336842145,-30.0969,0.0019,-0.0017,0.0023,-0.569793711,6.447891192,9.921262118,INS_ALIGNMENT_COMPLETE*8e1e91d3
#INSPVAA,COM1,0,78.0,FINESTEERING,1846,572876.000,00004000,54e2,13306;1846,572876.000000000,41.39053936144,-73.95336843711,-30.0921,0.0023,-0.0026,0.0025,-0.570264795,6.447481736,9.919996653,INS_ALIGNMENT_COMPLETE*aa73d492
#INSPVAA,COM1,0,77.5,FINESTEERING,1846,572876.500,00004000,54e2,13306;1846,572876.500000000,41.39053934947,-73.95336845241,-30.0874,0.0016,-0.0007,0.0021,-0.569708334,6.444561879,9.990679823,INS_ALIGNMENT_COMPLETE*f21920ce
#INSPVAA,COM1,0,77.5,FINESTEERING,1846,572877.000,00004000,54e2,13306;1846,572877.000000000,41.39053933830,-73.95336846801,-30.0827,0.0036,-0.0034,0.0014,-0.571964999,6.444516813,9.989626691,INS_ALIGNMENT_COMPLETE*a8c8d912
#INSPVAA,COM1,0,77.5,FINESTEERING,1846,572877.500,00004000,54e2,13306;1846,572877.500000000,41.39053932751,-73.95336848357,-30.0780,0.0016,-0.0021,0.0013,-0.571992675,6.445108843,9.939325243,INS_ALIGNMENT_COMPLETE*c1b8ac34
#INSPVAA,COM1,0,79.0,FINESTEERING,1846,572878.000,00004000,54e2,13306;1846,572878.000000000,41.39053931724,-73.95336849974,-30.0734,0.0018,-0.0047,0.0038,-0.574360088,6.442715341,9.938244556,INS_ALIGNMENT_COMPLETE*5cbb1d93
#INSPVAA,COM1,0,78.0,FINESTEERING,1846,572878.500,00004000,54e2,13306;1846,572878.500000000,41.39053911134,-73.95336885573,-29.9742,0.0034,-0.0066,0.0035,-0.575603373,6.443435714,9.935121934,INS_ALIGNMENT_COMPLETE*4eca61dc
#INSPVAA,COM1,0,78.0,FINESTEERING,1846,572879.000,00004000,54e2,13306;1846,572879.000000000,41.39053908409,-73.95336895813,-29.9541,0.0049,-0.0095,0.0025,-0.577920768,6.445080137,9.934597572,INS_ALIGNMENT_COMPLETE*66709c02
#INSPVAA,COM1,0,78.0,FINESTEERING,1846,572879.500,00004000,54e2,13306;1846,572879.500000000,41.39053905753,-73.95336908729,-29.9311,0.0073,-0.0129,0.0034,-0.580276831,6.444301572,9.937275585,INS_ALIGNMENT_COMPLETE*c6d9f17f
#INSPVAA,COM1,0,79.0,FINESTEERING,1846,572880.000,00004000,54e2,13306;1846,572880.000000000,41.39053903979,-73.95336923984,-29.9077,0.0090,-0.0167,0.0050,-0.580894608,6.443437461,9.936426583,INS_ALIGNMENT_COMPLETE*c055cc72
#INSPVAA,COM1,0,79.0,FINESTEERING,1846,572880.500,00004000,54e2,13306;1846,572880.500000000,41.39053899180,-73.95336926666,-29.8926,0.0011,-0.0037,0.0027,-0.577599860,6.443892204,9.946511167,INS_ALIGNMENT_COMPLETE*043c6f4c
#INSPVAA,COM1,0,79.0,FINESTEERING,1846,572881.000,00004000,54e2,13306;1846,572881.000000000,41.39053897038,-73.95336928685,-29.8849,0.0024,-0.0072,0.0035,-0.580322321,6.442650561,9.947835596,INS_ALIGNMENT_COMPLETE*00469a37
#INSPVAA,COM1,0,78.0,FINESTEERING,1846,572881.500,00004000,54e2,13306;1846,572881.500000000,41.39053894809,-73.95336930281,-29.8781,0.0016,-0.0041,0.0021,-0.580724373,6.442594505,9.929108994,INS_ALIGNMENT_COMPLETE*7d429ebc
#INSPVAA,COM1,0,78.0,FINESTEERING,1846,572882.000,00004000,54e2,13306;1846,572882.000000000,41.39053892678,-73.95336932214,-29.8715,0.0027,-0.0075,0.0015,-0.581359710,6.443233366,9.926501918,INS_ALIGNMENT_COMPLETE*34bad637
#INSPVAA,COM1,0,78.0,FINESTEERING,1846,572882.500,00004000,54e2,13306;1846,572882.500000000,41.39053890523,-73.95336934000,-29.8650,0.0037,-0.0037,0.0006,-0.582537125,6.443692962,9.939691313,INS_ALIGNMENT_COMPLETE*e7a79248
#INSPVAA,COM1,0,79.0,FINESTEERING,1846,572883.000,00004000,54e2,13306;1846,572883.000000000,41.39053888514,-73.95336935975,-29.8586,0.0046,-0.0054,0.0007,-0.584242340,6.442549402,9.940373916,INS_ALIGNMENT_COMPLETE*44ae927c
#INSPVAA,COM1,0,77.5,FINESTEERING,1846,572883.500,00004000,54e2,13306;1846,572883.500000000,41.39053886217,-73.95336938083,-29.8518,0.0024,-0.0040,0.0044,-0.585821311,6.442999160,9.927699619,INS_ALIGNMENT_COMPLETE*326a5798
#INSPVAA,COM1,0,77.5,FINESTEERING,1846,572884.000,00004000,54e2,13306;1846,572884.000000000,41.39053883822,-73.95336940563,-29.8446,0.0043,-0.0089,0.0044,-0.588150027,6.441951658,9.927079030,INS_ALIGNMENT_COMPLETE*a8b57fcc
#INSPVAA,COM1,0,77.5,FINESTEERING,1846,572884.500,00004000,54e2,13306;1846,572884.500000000,41.39053854884,-73.95336972026,-29.7617,0.0065,-0.0115,0.0043,-0.590230744,6.441690306,9.929614969,INS_ALIGNMENT_COMPLETE*567740b4
#INSPVAA,COM1,0,79.5,FINESTEERING,1846,572885.000,00004000,54e2,13306;1846,572885.000000000,41.39053843290,-73.95336988655,-29.7292,0.0082,-0.0165,0.0044,-0.593430290,6.441113179,9.932490854,INS_ALIGNMENT_COMPLETE*6f47c062
#INSPVAA,COM1,0,79.5,FINESTEERING,1846,572885.500,00004000,54e2,13306;1846,572885.500000000,41.39053830852,-73.95337008437,-29.6917,0.0109,-0.0194,0.0032,-0.595363254,6.441072948,9.933217960,INS_ALIGNMENT_COMPLETE*8df94177
#INSPVAA,COM1,0,81.0,FINESTEERING,1846,572886.000,00004000,54e2,13306;1846,572886.000000000,41.39053819746,-73.95337030771,-29.6547,0.0135,-0.0246,0.0026,-0.597194945,6.440183328,9.930176417,INS_ALIGNMENT_COMPLETE*d7dd0c02
#INSPVAA,COM1,0,79.0,FINESTEERING,1846,572886.500,00004000,54e2,13306;1846,572886.500000000,41.39053802960,-73.95337055790,-29.6073,0.0132,-0.0255,0.0032,-0.597335948,6.441279152,9.925719470,INS_ALIGNMENT_COMPLETE*9cfda335
#INSPVAA,COM1,0,79.0,FINESTEERING,1846,572887.000,00004000,54e2,13306;1846,572887.000000000,41.39053787447,-73.95337083488,-29.5585,0.0147,-0.0297,0.0060,-0.607269726,6.446694667,9.943113510,INS_ALIGNMENT_COMPLETE*9c84ebed
#INSPVAA,COM1,0,79.0,FINESTEERING,1846,572887.500,00004000,54e2,13306;1846,572887.500000000,41.39053764257,-73.95337111118,-29.4945,0.0174,-0.0297,0.0048,-0.607195793,6.446932249,9.941833840,INS_ALIGNMENT_COMPLETE*4b7b3671
#INSPVAA,COM1,0,79.0,FINESTEERING,1846,572888.000,00004000,54e2,13306;1846,572888.000000000,41.39053742117,-73.95337140956,-29.4297,0.0214,-0.0329,0.0055,-0.609746931,6.446168976,9.945580258,INS_ALIGNMENT_COMPLETE*b4f2c3ff
#INSPVAA,COM1,0,78.0,FINESTEERING,1846,572888.500,00004000,54e2,13306;1846,572888.500000000,41.39053746832,-73.95337150206,-29.4217,0.0196,-0.0314,0.0078,-0.612013426,6.445955883,9.949374979,INS_ALIGNMENT_COMPLETE*60e6e1fa
#INSPVAA,COM1,0,78.0,FINESTEERING,1846,572889.000,00004000,54e2,13306;1846,572889.000000000,41.39053753437,-73.95337161216,-29.4159,0.0208,-0.0359,0.0072,-0.623986671,6.449046328,9.972925669,INS_ALIGNMENT_COMPLETE*8e6eee1c
#INSPVAA,COM1,0,78.0,FINESTEERING,1846,572889.500,00004000,54e2,13306;1846,572889.500000000,41.39053752997,-73.95337188429,-29.3937,0.0239,-0.0411,0.0079,-0.627271163,6.449753188,9.989402939,INS_ALIGNMENT_COMPLETE*ae930b73
#INSPVAA,COM1,0,79.5,FINESTEERING,1846,572890.000,00004000,54e2,13306;1846,572890.000000000,41.39053753751,-73.95337218470,-29.3709,0.0268,-0.0459,0.0085,-0.627011733,6.449823307,9.964985136,INS_ALIGNMENT_COMPLETE*b12e0759
#INSPVAA,COM1,0,79.5,FINESTEERING,1846,572890.500,00004000,54e2,13306;1846,572890.500000000,41.39053754431,-73.95337251038,-29.3486,0.0298,-0.0511,0.0083,-0.620201089,6.445368949,9.931746134,INS_ALIGNMENT_COMPLETE*b98cceaa
#INSPVAA,COM1,0,81.0,FINESTEERING,1846,572891.000,00004000,54e2,13306;1846,572891.000000000,41.39053756252,-73.95337287168,-29.3261,0.0311,-0.0566,0.0098,-0.626206984,6.440167091,9.951770148,INS_ALIGNMENT_COMPLETE*6e10ee67
#INSPVAA,COM1,0,79.5,FINESTEERING,1846,572891.500,00004000,54e2,13306;1846,572891.500000000,41.39053743962,-73.95337319339,-29.3005,0.0268,-0.0605,0.0091,-0.636011455,6.446698868,9.986348575,INS_ALIGNMENT_COMPLETE*c2c2e76b
#INSPVAA,COM1,0,79.5,FINESTEERING,1846,572892.000,00004000,54e2,13306;1846,572892.000000000,41.39053731938,-73.95337354701,-29.2739,0.0244,-0.0680,0.0152,-0.636236517,6.453118383,10.018392742,INS_ALIGNMENT_COMPLETE*a04bfb67
#INSPVAA,COM1,0,78.5,FINESTEERING,1846,572892.500,00004000,54e2,13306;1846,572892.500000000,41.39053729359,-73.95337397533,-29.2491,0.0264,-0.0735,0.0130,-0.636790787,6.450946878,10.009544317,INS_ALIGNMENT_COMPLETE*6353158e
#INSPVAA,COM1,0,78.5,FINESTEERING,1846,572893.000,00004000,54e2,13306;1846,572893.000000000,41.39053727750,-73.95337443818,-29.2244,0.0309,-0.0774,0.0116,-0.634461843,6.447032397,10.000986888,INS_ALIGNMENT_COMPLETE*e6052e68
#INSPVAA,COM1,0,78.5,FINESTEERING,1846,572893.500,00004000,54e2,13306;1846,572893.500000000,41.39053723909,-73.95337491604,-29.2003,0.0310,-0.0827,0.0117,-0.629714596,6.458315403,9.962092634,INS_ALIGNMENT_COMPLETE*fa524d2a
#INSPVAA,COM1,0,81.0,FINESTEERING,1846,572894.000,00004000,54e2,13306;1846,572894.000000000,41.39053721079,-73.95337543215,-29.1756,0.0311,-0.0868,0.0135,-0.635258009,6.451634051,9.983902202,INS_ALIGNMENT_COMPLETE*eeaf17a9
#INSPVAA,COM1,0,80.5,FINESTEERING,1846,572894.500,00004000,54e2,13306;1846,572894.500000000,41.39053714015,-73.95337570260,-29.1526,0.0279,-0.0821,0.0139,-0.638641726,6.448604240,9.976736810,INS_ALIGNMENT_COMPLETE*f56130b1
#INSPVAA,COM1,0,80.5,FINESTEERING,1846,572895.000,00004000,54e2,13306;1846,572895.000000000,41.39053707771,-73.95337599881,-29.1289,0.0305,-0.0888,0.0135,-0.641484257,6.445667983,9.977369627,INS_ALIGNMENT_COMPLETE*444126f9
#INSPVAA,COM1,0,77.5,FINESTEERING,1846,572895.500,00004000,54e2,13306;1846,572895.500000000,41.39053684605,-73.95337610339,-29.1040,0.0196,-0.0790,0.0147,-0.641321394,6.448616318,9.961625802,INS_ALIGNMENT_COMPLETE*3b15403b
#INSPVAA,COM1,0,77.5,FINESTEERING,1846,572896.000,00004000,54e2,13306;1846,572896.000000000,41.39053662264,-73.95337624287,-29.0789,0.0227,-0.0870,0.0153,-0.643501887,6.449758388,9.950446945,INS_ALIGNMENT_COMPLETE*53e45fb9
#INSPVAA,COM1,0,77.5,FINESTEERING,1846,572896.500,00004000,54e2,13306;1846,572896.500000000,41.39053650594,-73.95337637880,-29.0538,0.0214,-0.0798,0.0155,-0.645556928,6.448845121,9.956023349,INS_ALIGNMENT_COMPLETE*0cba9478
#INSPVAA,COM1,0,80.0,FINESTEERING,1846,572897.000,00004000,54e2,13306;1846,572897.000000000,41.39053640683,-73.95337655483,-29.0282,0.0242,-0.0862,0.0172,-0.647256250,6.449927664,9.950373921,INS_ALIGNMENT_COMPLETE*b1c29341
#INSPVAA,COM1,0,80.0,FINESTEERING,1846,572897.500,00004000,54e2,13306;1846,572897.500000000,41.39053620074,-73.95337661957,-29.0029,0.0171,-0.0761,0.0167,-0.648341487,6.450026719,9.952136118,INS_ALIGNMENT_COMPLETE*c64babee
#INSPVAA,COM1,0,81.0,FINESTEERING,1846,572898.000,00004000,54e2,13306;1846,572898.000000000,41.39053600012,-73.95337672498,-28.9776,0.0196,-0.0840,0.0168,-0.650253018,6.450143631,9.958896076,INS_ALIGNMENT_COMPLETE*525c4e9a
#INSPVAA,COM1,0,78.5,FINESTEERING,1846,572898.500,00004000,54e2,13306;1846,572898.500000000,41.39053558768,-73.95337535246,-28.9642,0.0061,-0.0241,0.0136,-0.649230783,6.450364058,9.957206133,INS_ALIGNMENT_COMPLETE*be8ba214
#INSPVAA,COM1,0,78.5,FINESTEERING,1846,572899.000,00004000,54e2,13306;1846,572899.000000000,41.39053518157,-73.95337396493,-28.9507,0.0088,-0.0309,0.0140,-0.650188587,6.449333813,9.954703683,INS_ALIGNMENT_COMPLETE*102a4d46
#INSPVAA,COM1,0,78.5,FINESTEERING,1846,572899.500,00004000,54e2,13306;1846,572899.500000000,41.39053499201,-73.95337379731,-28.9354,0.0060,-0.0215,0.0121,-0.651159657,6.448486276,9.956935592,INS_ALIGNMENT_COMPLETE*41edc41d
#INSPVAA,COM1,0,78.5,FINESTEERING,1846,572900.000,00004000,54e2,13306;1846,572900.000000000,41.39053490916,-73.95337375876,-28.9276,0.0100,-0.0284,0.0117,-0.651708091,6.447102422,9.956651378,INS_ALIGNMENT_COMPLETE*5deef5cb
#INSPVAA,COM1,0,78.5,FINESTEERING,1846,572900.500,00004000,54e2,13306;1846,572900.500000000,41.39053467449,-73.95337376488,-28.9012,0.0077,-0.0245,0.0119,-0.639383208,6.444367290,9.951261981,INS_ALIGNMENT_COMPLETE*c2b0c23c
#INSPVAA,COM1,0,80.5,FINESTEERING,1846,572901.000,00004000,54e2,13306;1846,572901.000000000,41.39053453556,-73.95337385655,-28.8816,0.0114,-0.0312,0.0119,-0.645612188,6.443620625,9.963502484,INS_ALIGNMENT_COMPLETE*49771239
#INSPVAA,COM1,0,79.5,FINESTEERING,1846,572901.500,00004000,54e2,13306;1846,572901.500000000,41.39053440897,-73.95337395027,-28.8634,0.0093,-0.0276,0.0096,-0.649222252,6.442222479,9.980870376,INS_ALIGNMENT_COMPLETE*f246e9f9
#INSPVAA,COM1,0,79.5,FINESTEERING,1846,572902.000,00004000,54e2,13306;1846,572902.000000000,41.39053429699,-73.95337408127,-28.8449,0.0129,-0.0331,0.0109,-0.652309975,6.442238771,9.985044290,INS_ALIGNMENT_COMPLETE*b26674fd
#INSPVAA,COM1,0,76.5,FINESTEERING,1846,572902.500,00004000,54e2,13306;1846,572902.500000000,41.39053419864,-73.95337421467,-28.8261,0.0111,-0.0294,0.0098,-0.654415958,6.441505464,9.994207283,INS_ALIGNMENT_COMPLETE*ef258a30
#INSPVAA,COM1,0,76.5,FINESTEERING,1846,572903.000,00004000,54e2,13306;1846,572903.000000000,41.39053411390,-73.95337439543,-28.8068,0.0139,-0.0371,0.0114,-0.656484714,6.440901828,10.001832049,INS_ALIGNMENT_COMPLETE*56097961
#INSPVAA,COM1,0,76.5,FINESTEERING,1846,572903.500,00004000,54e2,13306;1846,572903.500000000,41.39053402815,-73.95337454895,-28.7892,0.0125,-0.0328,0.0092,-0.657461447,6.442951708,10.001528827,INS_ALIGNMENT_COMPLETE*1b7ff280
#INSPVAA,COM1,0,78.0,FINESTEERING,1846,572904.000,00004000,54e2,13306;1846,572904.000000000,41.39053395677,-73.95337475113,-28.7718,0.0157,-0.0406,0.0079,-0.658352314,6.441439486,10.001549434,INS_ALIGNMENT_COMPLETE*ecebf4f5
#INSPVAA,COM1,0,78.0,FINESTEERING,1846,572904.500,00004000,54e2,13306;1846,572904.500000000,41.39053387707,-73.95337492844,-28.7531,0.0132,-0.0338,0.0082,-0.661255589,6.442330089,10.015994195,INS_ALIGNMENT_COMPLETE*5f611859
#INSPVAA,COM1,0,80.0,FINESTEERING,1846,572905.000,00004000,54e2,13306;1846,572905.000000000,41.39053381280,-73.95337515248,-28.7345,0.0170,-0.0414,0.0073,-0.665973694,6.440959161,10.025816724,INS_ALIGNMENT_COMPLETE*c99950b5
#INSPVAA,COM1,0,80.0,FINESTEERING,1846,572905.500,00004000,54e2,13306;1846,572905.500000000,41.39053373538,-73.95337533247,-28.7154,0.0137,-0.0334,0.0070,-0.667718559,6.440459748,10.065897016,INS_ALIGNMENT_COMPLETE*09b96863
#INSPVAA,COM1,0,80.5,FINESTEERING,1846,572906.000,00004000,54e2,13306;1846,572906.000000000,41.39053367330,-73.95337555686,-28.6960,0.0181,-0.0428,0.0068,-0.671952843,6.439748595,10.072847429,INS_ALIGNMENT_COMPLETE*238ff031
#INSPVAA,COM1,0,78.5,FINESTEERING,1846,572906.500,00004000,54e2,13306;1846,572906.500000000,41.39053359424,-73.95337573520,-28.6765,0.0151,-0.0361,0.0068,-0.672192617,6.439658915,10.082301110,INS_ALIGNMENT_COMPLETE*e9c0df47
#INSPVAA,COM1,0,78.5,FINESTEERING,1846,572907.000,00004000,54e2,13306;1846,572907.000000000,41.39053352900,-73.95337596137,-28.6564,0.0186,-0.0438,0.0075,-0.675299802,6.439371740,10.084816456,INS_ALIGNMENT_COMPLETE*bdff0e7b
#INSPVAA,COM1,0,78.5,FINESTEERING,1846,572907.500,00004000,54e2,13306;1846,572907.500000000,41.39053345818,-73.95337611739,-28.6380,0.0156,-0.0369,0.0065,-0.674507052,6.439125939,10.083244493,INS_ALIGNMENT_COMPLETE*2dfb2b78
#INSPVAA,COM1,0,78.5,FINESTEERING,1846,572908.000,00004000,54e2,13306;1846,572908.000000000,41.39053340123,-73.95337631798,-28.6193,0.0179,-0.0465,0.0080,-0.681438392,6.436126590,10.112477966,INS_ALIGNMENT_COMPLETE*b996d1ec
#INSPVAA,COM1,0,78.5,FINESTEERING,1846,572908.500,00004000,54e2,13306;1846,572908.500000000,41.39053333298,-73.95337644538,-28.6009,0.0129,-0.0367,0.0069,-0.680205946,6.438468904,10.124392275,INS_ALIGNMENT_COMPLETE*1b331d3c
#INSPVAA,COM1,0,81.0,FINESTEERING,1846,572909.000,00004000,54e2,13306;1846,572909.000000000,41.39053328040,-73.95337662126,-28.5826,0.0184,-0.0447,0.0068,-0.681231718,6.441130590,10.119269746,INS_ALIGNMENT_COMPLETE*79c71a87
#INSPVAA,COM1,0,80.0,FINESTEERING,1846,572909.500,00004000,54e2,13306;1846,572909.500000000,41.39053320674,-73.95337674589,-28.5642,0.0151,-0.0373,0.0072,-0.679089255,6.441266215,10.113521481,INS_ALIGNMENT_COMPLETE*5a5fe960
#INSPVAA,COM1,0,80.0,FINESTEERING,1846,572910.000,00004000,54e2,13306;1846,572910.000000000,41.39053314710,-73.95337691890,-28.5462,0.0185,-0.0456,0.0060,-0.678494258,6.439246228,10.114855593,INS_ALIGNMENT_COMPLETE*feec1de1
#INSPVAA,COM1,0,78.0,FINESTEERING,1846,572910.500,00004000,54e2,13306;1846,572910.500000000,41.39053307480,-73.95337703188,-28.5277,0.0143,-0.0384,0.0065,-0.679679768,6.441862123,10.108615414,INS_ALIGNMENT_COMPLETE*ce862786
#INSPVAA,COM1,0,78.0,FINESTEERING,1846,572911.000,00004000,54e2,13306;1846,572911.000000000,41.39053301851,-73.95337719835,-28.5094,0.0187,-0.0473,0.0064,-0.680145178,6.439100635,10.123157140,INS_ALIGNMENT_COMPLETE*66f5127d
#INSPVAA,COM1,0,78.0,FINESTEERING,1846,572911.500,00004000,54e2,13306;1846,572911.500000000,41.39053295665,-73.95337729067,-28.4923,0.0153,-0.0389,0.0047,-0.680640614,6.439073129,10.119604867,INS_ALIGNMENT_COMPLETE*ee5d8f87
#INSPVAA,COM1,0,80.0,FINESTEERING,1846,572912.000,00004000,54e2,13306;1846,572912.000000000,41.39053291231,-73.95337743089,-28.4752,0.0185,-0.0474,0.0051,-0.682333394,6.440005958,10.118808286,INS_ALIGNMENT_COMPLETE*6ee7b1bb
#INSPVAA,COM1,0,80.0,FINESTEERING,1846,572912.500,00004000,54e2,13306;1846,572912.500000000,41.39053284842,-73.95337751224,-28.4583,0.0152,-0.0393,0.0039,-0.681985436,6.438296172,10.118441919,INS_ALIGNMENT_COMPLETE*deb082d3
#INSPVAA,COM1,0,80.5,FINESTEERING,1846,572913.000,00004000,54e2,13306;1846,572913.000000000,41.39053279963,-73.95337763889,-28.4417,0.0190,-0.0472,0.0034,-0.684643567,6.436827404,10.119350380,INS_ALIGNMENT_COMPLETE*64e03b51
#INSPVAA,COM1,0,77.5,FINESTEERING,1846,572913.500,00004000,54e2,13306;1846,572913.500000000,41.39053272776,-73.95337771751,-28.4244,0.0137,-0.0379,0.0037,-0.677754527,6.434844993,10.113513952,INS_ALIGNMENT_COMPLETE*8da686ae
#INSPVAA,COM1,0,77.5,FINESTEERING,1846,572914.000,00004000,54e2,13306;1846,572914.000000000,41.39053266747,-73.95337784976,-28.4074,0.0176,-0.0504,0.0034,-0.674861038,6.436029521,10.056398406,INS_ALIGNMENT_COMPLETE*6c1ed61a
#INSPVAA,COM1,0,77.5,FINESTEERING,1846,572914.500,00004000,54e2,13306;1846,572914.500000000,41.39053259463,-73.95337791557,-28.3901,0.0143,-0.0405,0.0045,-0.670155173,6.437671284,10.033396614,INS_ALIGNMENT_COMPLETE*909c08b8
#INSPVAA,COM1,0,80.0,FINESTEERING,1846,572915.000,00004000,54e2,13306;1846,572915.000000000,41.39053253553,-73.95337803639,-28.3725,0.0186,-0.0504,0.0039,-0.670585826,6.436433565,10.031657625,INS_ALIGNMENT_COMPLETE*705c1a69
#INSPVAA,COM1,0,80.0,FINESTEERING,1846,572915.500,00004000,54e2,13306;1846,572915.500000000,41.39053246431,-73.95337810676,-28.3558,0.0162,-0.0417,0.0037,-0.671246290,6.435297953,10.029894877,INS_ALIGNMENT_COMPLETE*ba8e188e
#INSPVAA,COM1,0,81.0,FINESTEERING,1846,572916.000,00004000,54e2,13306;1846,572916.000000000,41.39053241001,-73.95337823190,-28.3393,0.0191,-0.0520,0.0027,-0.675597792,6.433970789,10.038642629,INS_ALIGNMENT_COMPLETE*37702d7f
#INSPVAA,COM1,0,79.0,FINESTEERING,1846,572916.500,00004000,54e2,13306;1846,572916.500000000,41.39053234525,-73.95337829597,-28.3222,0.0169,-0.0430,0.0040,-0.672108471,6.435089239,10.028959168,INS_ALIGNMENT_COMPLETE*a9b338a4
#INSPVAA,COM1,0,79.0,FINESTEERING,1846,572917.000,00004000,54e2,13306;1846,572917.000000000,41.39053230113,-73.95337841503,-28.3045,0.0204,-0.0514,0.0050,-0.673255062,6.436020579,10.027450253,INS_ALIGNMENT_COMPLETE*dc5cad96
#INSPVAA,COM1,0,78.5,FINESTEERING,1846,572917.500,00004000,54e2,13306;1846,572917.500000000,41.39053223455,-73.95337847697,-28.2877,0.0175,-0.0433,0.0048,-0.680840572,6.437748497,10.035151222,INS_ALIGNMENT_COMPLETE*48d8da53
#INSPVAA,COM1,0,78.5,FINESTEERING,1846,572918.000,00004000,54e2,13306;1846,572918.000000000,41.39053218678,-73.95337860398,-28.2710,0.0244,-0.0624,0.0042,-0.725142138,6.444043758,10.095185027,INS_ALIGNMENT_COMPLETE*65f9e11d
#INSPVAA,COM1,0,78.0,FINESTEERING,1846,572918.500,00004000,54e2,13306;1846,572918.500000000,41.39053209658,-73.95337886120,-28.2543,0.0312,-0.0703,-0.0014,-0.829859888,6.598746167,12.730503055,INS_ALIGNMENT_COMPLETE*89325fd2
#INSPVAA,COM1,0,78.0,FINESTEERING,1846,572919.000,00004000,54e2,13306;1846,572919.000000000,41.39053207453,-73.95337894100,-28.2388,0.0194,-0.0346,0.0024,-0.656080557,6.463663299,14.251959325,INS_ALIGNMENT_COMPLETE*44369e90
#INSPVAA,COM1,0,78.0,FINESTEERING,1846,572919.500,00004000,54e2,13306;1846,572919.500000000,41.39053202204,-73.95337890471,-28.2232,-0.0098,0.0384,0.0135,-0.516484762,6.339467706,9.928956055,INS_ALIGNMENT_COMPLETE*8091cb6a
#INSPVAA,COM1,0,79.0,FINESTEERING,1846,572920.000,00004000,54e2,13306;1846,572920.000000000,41.39053199833,-73.95337899642,-28.2073,0.0304,-0.0884,0.0024,-0.657984618,6.320398781,5.184923056,INS_ALIGNMENT_COMPLETE*5c48fda2
#INSPVAA,COM1,0,79.0,FINESTEERING,1846,572920.500,00004000,54e2,13306;1846,572920.500000000,41.39053217319,-73.95337988335,-28.1905,0.0656,-0.1866,-0.0037,-0.729697058,6.286263246,11.477853249,INS_ALIGNMENT_COMPLETE*22d71ead
#INSPVAA,COM1,0,80.5,FINESTEERING,1846,572921.000,00004000,54e2,13306;1846,572921.000000000,41.39053239831,-73.95338082274,-28.1731,0.0517,-0.1163,0.0007,-0.656510454,6.402609346,18.259076644,INS_ALIGNMENT_COMPLETE*afcb61a2
#INSPVAA,COM1,0,77.5,FINESTEERING,1846,572921.500,00004000,54e2,13306;1846,572921.500000000,41.39053247290,-73.95338126511,-28.1564,0.0316,-0.0786,0.0084,-0.522644993,6.372515065,17.516052020,INS_ALIGNMENT_COMPLETE*6eb79c69
#INSPVAA,COM1,0,77.5,FINESTEERING,1846,572922.000,00004000,54e2,13306;1846,572922.000000000,41.39053259471,-73.95338181531,-28.1393,0.0494,-0.1122,0.0074,-0.555365666,6.370977014,17.359457702,INS_ALIGNMENT_COMPLETE*3e488bdc
#INSPVAA,COM1,0,77.5,FINESTEERING,1846,572922.500,00004000,54e2,13306;1846,572922.500000000,41.39053273576,-73.95338240716,-28.1219,0.0541,-0.1167,0.0079,-0.580133808,6.381446246,17.481879447,INS_ALIGNMENT_COMPLETE*d0560bf4
#INSPVAA,COM1,0,80.0,FINESTEERING,1846,572923.000,00004000,54e2,13306;1846,572923.000000000,41.39053290267,-73.95338305615,-28.1042,0.0558,-0.1236,0.0074,-0.598378863,6.398574462,17.673909602,INS_ALIGNMENT_COMPLETE*2694d113
#INSPVAA,COM1,0,78.0,FINESTEERING,1846,572923.500,00004000,54e2,13306;1846,572923.500000000,41.39053306975,-73.95338367918,-28.0885,0.0608,-0.1302,0.0063,-0.602235614,6.404326626,17.685258098,INS_ALIGNMENT_COMPLETE*df262ee7
#INSPVAA,COM1,0,78.0,FINESTEERING,1846,572924.000,00004000,54e2,13306;1846,572924.000000000,41.39053326609,-73.95338436429,-28.0731,0.0682,-0.1406,0.0056,-0.633588921,6.419152594,17.767471703,INS_ALIGNMENT_COMPLETE*e2b988a5
#INSPVAA,COM1,0,78.0,FINESTEERING,1846,572924.500,00004000,54e2,13306;1846,572924.500000000,41.39053345788,-73.95338499078,-28.0589,0.0685,-0.1420,0.0060,-0.654956938,6.433267573,17.917352862,INS_ALIGNMENT_COMPLETE*ec73bdce
#INSPVAA,COM1,0,79.0,FINESTEERING,1846,572925.000,00004000,54e2,13306;1846,572925.000000000,41.39053367476,-73.95338565601,-28.0447,0.0746,-0.1482,0.0051,-0.629795969,6.417413654,17.938653416,INS_ALIGNMENT_COMPLETE*cf8d7b52
#INSPVAA,COM1,0,79.0,FINESTEERING,1846,572925.500,00004000,54e2,13306;1846,572925.500000000,41.39053386825,-73.95338623017,-28.0319,0.0762,-0.1520,0.0049,-0.642804296,6.429581518,17.925602134,INS_ALIGNMENT_COMPLETE*0455d961
#INSPVAA,COM1,0,79.5,FINESTEERING,1846,572926.000,00004000,54e2,13306;1846,572926.000000000,41.39053409407,-73.95338686593,-28.0194,0.0856,-0.1670,0.0053,-0.673090292,6.434236714,18.099992501,INS_ALIGNMENT_COMPLETE*aca45605
#INSPVAA,COM1,0,79.0,FINESTEERING,1846,572926.500,00004000,54e2,13306;1846,572926.500000000,41.39053427321,-73.95338733249,-28.0075,0.0802,-0.1590,-0.0047,-0.673441903,6.427797598,18.289292711,INS_ALIGNMENT_COMPLETE*9671e597
#INSPVAA,COM1,0,79.0,FINESTEERING,1846,572927.000,00004000,54e2,13306;1846,572927.000000000,41.39053448392,-73.95338788743,-27.9956,0.0956,-0.1806,-0.0015,-0.677897516,6.475351552,18.865770179,INS_ALIGNMENT_COMPLETE*f12e7845
#INSPVAA,COM1,0,79.0,FINESTEERING,1846,572927.500,00004000,54e2,13306;1846,572927.500000000,41.39053461124,-73.95338820976,-27.9838,0.0858,-0.1599,0.0095,-0.684293623,6.503020190,19.410945275,INS_ALIGNMENT_COMPLETE*1f37b59a
#INSPVAA,COM1,0,81.0,FINESTEERING,1846,572928.000,00004000,54e2,13306;1846,572928.000000000,41.39053476364,-73.95338857553,-27.9721,0.0943,-0.1774,0.0090,-0.763524795,6.493488461,19.858015202,INS_ALIGNMENT_COMPLETE*7283ba51
#INSPVAA,COM1,0,79.0,FINESTEERING,1846,572928.500,00004000,54e2,13306;1846,572928.500000000,41.39053482857,-73.95338872133,-27.9606,0.0788,-0.1363,-0.0070,-1.018818821,6.554700051,20.568527963,INS_ALIGNMENT_COMPLETE*922532ee
#INSPVAA,COM1,0,79.0,FINESTEERING,1846,572929.000,00004000,54e2,13306;1846,572929.000000000,41.39053508281,-73.95338923260,-27.9424,0.1822,-0.2926,0.0316,-5.161152130,5.252660214,19.997092907,INS_ALIGNMENT_COMPLETE*a6102c72
#INSPVAA,COM1,0,78.5,FINESTEERING,1846,572929.500,00004000,54e2,13306;1846,572929.500000000,41.39053529062,-73.95338997644,-27.9259,0.1197,-0.2084,-0.0022,-11.879301794,3.689633862,22.807160387,INS_ALIGNMENT_COMPLETE*53a09775
#INSPVAA,COM1,0,78.5,FINESTEERING,1846,572930.000,00004000,54e2,13306;1846,572930.000000000,41.39053514594,-73.95338999093,-27.9192,0.0242,-0.0926,-0.0073,-11.777389031,3.781421244,23.383585581,INS_ALIGNMENT_COMPLETE*36b2c3d6
#INSPVAA,COM1,0,77.5,FINESTEERING,1846,572930.500,00004000,54e2,13306;1846,572930.500000000,41.39052687728,-73.95338545568,-27.9284,-0.3913,0.1534,-0.0422,-3.732967778,6.041278234,22.387993779,INS_SOLUTION_GOOD*2a95d202
#INSPVAA,COM1,0,77.5,FINESTEERING,1846,572931.000,00004000,54e2,13306;1846,572931.000000000,41.39051850764,-73.95338127583,-27.9352,-0.2937,-0.0321,-0.0137,-1.329124907,6.683263497,21.201603318,INS_SOLUTION_GOOD*42553354
#INSPVAA,COM1,0,77.5,FINESTEERING,1846,572931.500,00004000,54e2,13306;1846,572931.500000000,41.39051768541,-73.95338133321,-27.9143,-0.2284,-0.1134,0.0150,-3.475099972,6.252015400,20.592733211,INS_SOLUTION_GOOD*2ef70616
#INSPVAA,COM1,0,78.0,FINESTEERING,1846,572932.000,00004000,54e2,13306;1846,572932.000000000,41.39051733205,-73.95338186130,-27.8919,-0.2242,-0.0643,-0.0070,-8.675284912,4.507130536,20.631440859,INS_SOLUTION_GOOD*be893fd5
#INSPVAA,COM1,0,78.0,FINESTEERING,1846,572932.500,00004000,54e2,13306;1846,572932.500000000,41.39051714181,-73.95338211356,-27.8527,-0.3059,0.0332,-0.0122,-9.602098447,4.268299438,20.849374383,INS_SOLUTION_GOOD*55f96341
#INSPVAA,COM1,0,80.0,FINESTEERING,1846,572933.000,00004000,54e2,13306;1846,572933.000000000,41.39051651384,-73.95338160859,-27.8223,-0.3563,0.0869,-0.0381,-2.622036204,6.235207261,20.436457531,INS_SOLUTION_GOOD*ca34de1a
#INSPVAA,COM1,0,79.5,FINESTEERING,1846,572933.500,00004000,54e2,13306;1846,572933.500000000,41.39051565925,-73.95338169800,-27.8046,-0.2830,-0.0142,0.0019,-1.440537785,6.629944617,20.337257372,INS_SOLUTION_GOOD*f8a7c11d
#INSPVAA,COM1,0,79.5,FINESTEERING,1846,572934.000,00004000,54e2,13306;1846,572934.000000000,41.39051475280,-73.95338152388,-27.7852,-0.3254,0.0955,-0.0096,0.093698572,6.318465672,18.089303669,INS_SOLUTION_GOOD*50e0efdf
#INSPVAA,COM1,0,79.0,FINESTEERING,1846,572934.500,00004000,54e2,13306;1846,572934.500000000,41.39051419340,-73.95338088513,-27.7254,-0.2622,0.1019,0.0387,5.686110909,4.921601154,15.207144318,INS_SOLUTION_GOOD*64a73c9b
#INSPVAA,COM1,0,79.0,FINESTEERING,1846,572935.000,00004000,54e2,13306;1846,572935.000000000,41.39051375813,-73.95338026458,-27.6631,-0.2560,0.0811,0.0255,12.285892220,3.724399995,17.567946196,INS_SOLUTION_GOOD*61a69bc2
#INSPVAA,COM1,0,79.0,FINESTEERING,1846,572935.500,00004000,54e2,13306;1846,572935.500000000,41.39051294072,-73.95338037921,-27.6585,-0.2286,-0.0969,0.0028,11.856435472,3.723461085,16.832752839,INS_SOLUTION_GOOD*e15d15dc
#INSPVAA,COM1,0,78.5,FINESTEERING,1846,572936.000,00004000,54e2,13306;1846,572936.000000000,41.39051209963,-73.95338122133,-27.6680,-0.2391,-0.1701,-0.0305,5.018680464,4.925887908,14.996014806,INS_SOLUTION_GOOD*b4233ab1
#INSPVAA,COM1,0,78.5,FINESTEERING,1846,572936.500,00004000,54e2,13306;1846,572936.500000000,41.39051195585,-73.95338074594,-27.7620,-0.2079,0.0315,-0.0257,0.460567693,5.807888088,14.378289594,INS_SOLUTION_GOOD*911b11f8
#INSPVAA,COM1,0,78.5,FINESTEERING,1846,572937.000,00004000,54e2,13306;1846,572937.000000000,41.39051195691,-73.95337961659,-27.8442,-0.2097,0.0444,-0.0036,0.408506429,5.785224208,14.336627690,INS_SOLUTION_GOOD*90ec923e
#INSPVAA,COM1,0,78.5,FINESTEERING,1846,572937.500,00004000,54e2,13306;1846,572937.500000000,41.39051131714,-73.95337928852,-27.8557,-0.2081,0.0570,0.0025,0.431406279,5.778146106,14.291095950,INS_SOLUTION_GOOD*491a917f
#INSPVAA,COM1,0,78.5,FINESTEERING,1846,572938.000,00004000,54e2,13306;1846,572938.000000000,41.39051064611,-73.95337895548,-27.8649,-0.2071,0.0583,0.0073,0.443621999,5.772510230,14.216132253,INS_SOLUTION_GOOD*fdad1538
#INSPVAA,COM1,0,79.5,FINESTEERING,1846,572938.500,00004000,54e2,13306;1846,572938.500000000,41.39051030585,-73.95337840475,-27.8687,-0.2079,0.0645,0.0066,0.479904630,5.773206753,14.197180592,INS_HIGH_VARIANCE*2d044609
#INSPVAA,COM1,0,79.5,FINESTEERING,1846,572939.000,00004000,54e2,13306;1846,572939.000000000,41.39050996011,-73.95337785194,-27.8716,-0.2090,0.0659,0.0083,0.390703854,5.788062507,14.207838987,INS_HIGH_VARIANCE*6d8f9c2d
#INSPVAA,COM1,0,80.5,FINESTEERING,1846,572939.500,00004000,54e2,13306;1846,572939.500000000,41.39051115065,-73.95337747252,-27.9106,-0.0910,0.0645,-0.0049,0.361916367,5.714194997,15.089790743,INS_SOLUTION_GOOD*978ab36c
#INSPVAA,COM1,0,80.0,FINESTEERING,1846,572940.000,00004000,54e2,13306;1846,572940.000000000,41.39051242314,-73.95337707998,-27.9508,-0.0887,0.0669,-0.0043,0.361136705,5.712874570,15.056616313,INS_SOLUTION_GOOD*f91999db
#INSPVAA,COM1,0,80.0,FINESTEERING,1846,572940.500,00004000,54e2,13306;1846,572940.500000000,41.39051278123,-73.95337662930,-27.9602,-0.0725,0.0631,-0.0028,0.353339228,5.708599604,15.107079201,INS_SOLUTION_GOOD*f7b353fa
#INSPVAA,COM1,0,79.5,FINESTEERING,1846,572941.000,00004000,54e2,13306;1846,572941.000000000,41.39051311981,-73.95337615987,-27.9676,-0.0666,0.0690,-0.0020,0.339386401,5.709573092,15.171604307,INS_SOLUTION_GOOD*2c109965
#INSPVAA,COM1,0,79.5,FINESTEERING,1846,572941.500,00004000,54e2,13306;1846,572941.500000000,41.39051357340,-73.95337578818,-27.9708,-0.0458,0.0619,0.0026,0.332983495,5.705831094,15.336444707,INS_SOLUTION_GOOD*34a55b2d
#INSPVAA,COM1,0,79.5,FINESTEERING,1846,572942.000,00004000,54e2,13306;1846,572942.000000000,41.39051403965,-73.95337540541,-27.9733,-0.0425,0.0638,0.0008,0.348257419,5.705272251,15.305347733,INS_SOLUTION_GOOD*1b08a99f
#INSPVAA,COM1,0,80.0,FINESTEERING,1846,572942.500,00004000,54e2,13306;1846,572942.500000000,41.39051462032,-73.95337515190,-27.9714,-0.0189,0.0566,0.0057,0.333281597,5.695528661,15.400408693,INS_SOLUTION_GOOD*485a061d
#INSPVAA,COM1,0,80.0,FINESTEERING,1846,572943.000,00004000,54e2,13306;1846,572943.000000000,41.39051522258,-73.95337488986,-27.9688,-0.0157,0.0578,0.0076,0.329286776,5.692872206,15.432246662,INS_SOLUTION_GOOD*a245019e
#INSPVAA,COM1,0,80.0,FINESTEERING,1846,572943.500,00004000,54e2,13306;1846,572943.500000000,41.39051597285,-73.95337524064,-27.9822,0.0104,0.0228,0.0025,0.306727152,5.695009922,15.450821599,INS_SOLUTION_GOOD*4c98389f
#INSPVAA,COM1,0,80.0,FINESTEERING,1846,572944.000,00004000,54e2,13306;1846,572944.000000000,41.39051675764,-73.95337560634,-27.9950,0.0173,0.0233,0.0051,0.307351898,5.694886038,15.453214212,INS_SOLUTION_GOOD*073ac839
#INSPVAA,COM1,0,80.5,FINESTEERING,1846,572944.500,00004000,54e2,13306;1846,572944.500000000,41.39051722150,-73.95337559424,-27.9993,0.0194,0.0112,0.0058,0.301431480,5.702118013,15.341722106,INS_SOLUTION_GOOD*af1df22e
#INSPVAA,COM1,0,79.0,FINESTEERING,1846,572945.000,00004000,54e2,13306;1846,572945.000000000,41.39051769679,-73.95337556644,-28.0035,0.0250,0.0111,0.0045,0.300629049,5.700937446,15.340891363,INS_SOLUTION_GOOD*f744c001
#INSPVAA,COM1,0,79.0,FINESTEERING,1846,572945.500,00004000,54e2,13306;1846,572945.500000000,41.39051809174,-73.95337541211,-28.0138,0.0222,0.0088,0.0028,0.300969501,5.708819368,15.228426186,INS_SOLUTION_GOOD*092c81a0
#INSPVAA,COM1,0,79.0,FINESTEERING,1846,572946.000,00004000,54e2,13306;1846,572946.000000000,41.39051830158,-73.95337533344,-28.0187,0.0282,0.0073,0.0045,0.300659819,5.706641613,15.229768290,INS_SOLUTION_GOOD*f4e457da
#INSPVAA,COM1,0,80.0,FINESTEERING,1846,572946.500,00004000,54e2,13306;1846,572946.500000000,41.39051890387,-73.95337511188,-28.0291,0.0263,0.0056,0.0034,0.302476829,5.714493400,15.145006556,INS_SOLUTION_GOOD*8c9c1bfd
#INSPVAA,COM1,0,80.0,FINESTEERING,1846,572947.000,00004000,54e2,13306;1846,572947.000000000,41.39051932091,-73.95337497437,-28.0342,0.0326,0.0044,0.0029,0.299760476,5.714839693,15.144132987,INS_SOLUTION_GOOD*abd671fb
#INSPVAA,COM1,0,80.0,FINESTEERING,1846,572947.500,00004000,54e2,13306;1846,572947.500000000,41.39051970488,-73.95337484312,-28.0337,0.0316,0.0050,0.0041,0.304091762,5.718226874,15.067588775,INS_SOLUTION_GOOD*47d17b32
#INSPVAA,COM1,0,80.0,FINESTEERING,1846,572948.000,00004000,54e2,13306;1846,572948.000000000,41.39052011240,-73.95337471971,-28.0324,0.0375,0.0036,0.0055,0.303189665,5.717159632,15.069777749,INS_SOLUTION_GOOD*db8cac91
#INSPVAA,COM1,0,80.0,FINESTEERING,1846,572948.500,00004000,54e2,13306;1846,572948.500000000,41.39052049668,-73.95337462900,-28.0306,0.0362,0.0025,0.0044,0.306655827,5.722044150,15.016495951,INS_SOLUTION_GOOD*23696e93
#INSPVAA,COM1,0,80.0,FINESTEERING,1846,572949.000,00004000,54e2,13306;1846,572949.000000000,41.39052090174,-73.95337453975,-28.0288,0.0401,0.0013,0.0053,0.305095305,5.722338124,15.018391806,INS_SOLUTION_GOOD*f81c0f8c
#INSPVAA,COM1,0,80.0,FINESTEERING,1846,572949.500,00004000,54e2,13306;1846,572949.500000000,41.39052124437,-73.95337444547,-28.0279,0.0348,0.0004,0.0052,0.310387133,5.728080802,14.934647386,INS_SOLUTION_GOOD*6c3e8b05
#INSPVAA,COM1,0,80.0,FINESTEERING,1846,572950.000,00004000,54e2,13306;1846,572950.000000000,41.39052160263,-73.95337436205,-28.0264,0.0399,-0.0010,0.0061,0.311640879,5.727987019,14.931641949,INS_SOLUTION_GOOD*15c6418d
#INSPVAA,COM1,0,80.0,FINESTEERING,1846,572950.500,00004000,54e2,13306;1846,572950.500000000,41.39052192019,-73.95337429844,-28.0236,0.0361,-0.0046,0.0057,0.326066290,5.728177695,14.900273995,INS_SOLUTION_GOOD*b1ad30c6
#INSPVAA,COM1,0,80.0,FINESTEERING,1846,572951.000,00004000,54e2,13306;1846,572951.000000000,41.39052224936,-73.95337424943,-28.0202,0.0566,0.0041,0.0070,0.350390242,5.727760147,14.876562929,INS_SOLUTION_GOOD*63da22f1
#INSPVAA,COM1,0,80.0,FINESTEERING,1846,572951.500,00004000,54e2,13306;1846,572951.500000000,41.39052256539,-73.95337422387,-28.0160,0.0296,-0.0078,0.0058,0.418263890,5.623983060,15.433476693,INS_SOLUTION_GOOD*2a027dbd
#INSPVAA,COM1,0,80.0,FINESTEERING,1846,572952.000,00004000,54e2,13306;1846,572952.000000000,41.39052284442,-73.95337425430,-28.0112,0.0365,-0.0112,0.0068,0.348948499,5.641897545,15.371774292,INS_SOLUTION_GOOD*84b62bd7
#INSPVAA,COM1,0,80.0,FINESTEERING,1846,572952.500,00004000,54e2,13306;1846,572952.500000000,41.39052304964,-73.95337425928,-28.0062,0.0260,-0.0136,0.0062,0.315022717,5.657008512,15.279887523,INS_SOLUTION_GOOD*a178a5f2
#INSPVAA,COM1,0,80.0,FINESTEERING,1846,572953.000,00004000,54e2,13306;1846,572953.000000000,41.39052325539,-73.95337427228,-28.0010,0.0318,-0.0139,0.0070,0.295731821,5.670368602,15.176256064,INS_SOLUTION_GOOD*40e6f996
#INSPVAA,COM1,0,80.0,FINESTEERING,1846,572953.500,00004000,54e2,13306;1846,572953.500000000,41.39052356697,-73.95337423005,-27.9952,0.0333,-0.0141,0.0073,0.303801114,5.669239427,15.165602078,INS_SOLUTION_GOOD*6c35ef43
#INSPVAA,COM1,0,80.0,FINESTEERING,1846,572954.000,00004000,54e2,13306;1846,572954.000000000,41.39052389117,-73.95337420205,-27.9893,0.0362,-0.0167,0.0080,0.297640275,5.671215325,15.161781213,INS_SOLUTION_GOOD*44487ec3
#INSPVAA,COM1,0,80.0,FINESTEERING,1846,572954.500,00004000,54e2,13306;1846,572954.500000000,41.39052408461,-73.95337416418,-27.9839,0.0311,-0.0138,0.0073,0.300695218,5.674696344,15.109201694,INS_SOLUTION_GOOD*788b0129
#INSPVAA,COM1,0,80.0,FINESTEERING,1846,572955.000,00004000,54e2,13306;1846,572955.000000000,41.39052428625,-73.95337413678,-27.9781,0.0334,-0.0164,0.0072,0.297275223,5.676054839,15.110313858,INS_SOLUTION_GOOD*af4a0c33
#INSPVAA,COM1,0,80.0,FINESTEERING,1846,572955.500,00004000,54e2,13306;1846,572955.500000000,41.39052448165,-73.95337408714,-27.9734,0.0290,-0.0139,0.0058,0.301115723,5.678032504,15.059321944,INS_SOLUTION_GOOD*094c3a84
#INSPVAA,COM1,0,80.0,FINESTEERING,1846,572956.000,00004000,54e2,13306;1846,572956.000000000,41.39052468444,-73.95337405202,-27.9688,0.0300,-0.0161,0.0055,0.301162972,5.678251336,15.057487341,INS_SOLUTION_GOOD*4d9407a9
#INSPVAA,COM1,0,80.0,FINESTEERING,1846,572956.500,00004000,54e2,13306;1846,572956.500000000,41.39052484575,-73.95337400575,-27.9652,0.0252,-0.0129,0.0036,0.304158183,5.682528490,15.016594624,INS_SOLUTION_GOOD*05263d91
#INSPVAA,COM1,0,80.0,FINESTEERING,1846,572957.000,00004000,54e2,13306;1846,572957.000000000,41.39052501383,-73.95337397194,-27.9609,0.0271,-0.0154,0.0042,0.302608621,5.682257745,15.016781945,INS_SOLUTION_GOOD*f19da0c7
#INSPVAA,COM1,0,80.0,FINESTEERING,1846,572957.500,00004000,54e2,13306;1846,572957.500000000,41.39052514270,-73.95337391210,-27.9558,0.0222,-0.0114,0.0047,0.305555035,5.686085311,14.976140149,INS_SOLUTION_GOOD*75c2457f
#INSPVAA,COM1,0,80.0,FINESTEERING,1846,572958.000,00004000,54e2,13306;1846,572958.000000000,41.39052527749,-73.95337385747,-27.9504,0.0238,-0.0132,0.0036,0.302672888,5.685855624,14.976418269,INS_SOLUTION_GOOD*776c9280
#INSPVAA,COM1,0,80.0,FINESTEERING,1846,572958.500,00004000,54e2,13306;1846,572958.500000000,41.39052535244,-73.95337378707,-27.9449,0.0170,-0.0095,0.0031,0.307973056,5.689341326,14.931467448,INS_SOLUTION_GOOD*5a57896d
#INSPVAA,COM1,0,78.5,FINESTEERING,1846,572959.000,00004000,54e2,13306;1846,572959.000000000,41.39052539055,-73.95337375751,-27.9421,0.0179,-0.0114,0.0017,0.306286281,5.690847762,14.930758064,INS_SOLUTION_GOOD*43d5cc16
#INSPVAA,COM1,0,78.5,FINESTEERING,1846,572959.500,00004000,54e2,13306;1846,572959.500000000,41.39052541790,-73.95337374309,-27.9400,0.0103,-0.0068,0.0008,0.310506310,5.692340551,14.887354184,INS_SOLUTION_GOOD*afd69136
#INSPVAA,COM1,0,78.5,FINESTEERING,1846,572960.000,00004000,54e2,13306;1846,572960.000000000,41.39052544185,-73.95337373307,-27.9384,0.0101,-0.0080,-0.0015,0.309553430,5.694520638,14.886947765,INS_SOLUTION_GOOD*1bf8b8be
#INSPVAA,COM1,0,79.5,FINESTEERING,1846,572960.500,00004000,54e2,13306;1846,572960.500000000,41.39052545355,-73.95337371510,-27.9366,0.0008,-0.0028,0.0003,0.315051667,5.697987252,14.845056082,INS_SOLUTION_GOOD*3ab6b3bb
#INSPVAA,COM1,0,79.5,FINESTEERING,1846,572961.000,00004000,54e2,13306;1846,572961.000000000,41.39052545857,-73.95337369422,-27.9348,0.0004,-0.0041,0.0008,0.314928134,5.698846425,14.844715475,INS_SOLUTION_GOOD*88905f35
#INSPVAA,COM1,0,80.0,FINESTEERING,1846,572961.500,00004000,54e2,13306;1846,572961.500000000,41.39052546322,-73.95337367551,-27.9329,0.0003,-0.0040,-0.0003,0.316919483,5.699572990,14.816761582,INS_SOLUTION_GOOD*9c519735
#INSPVAA,COM1,0,79.0,FINESTEERING,1846,572962.000,00004000,54e2,13306;1846,572962.000000000,41.39052546801,-73.95337366058,-27.9311,0.0002,-0.0073,0.0009,0.314244686,5.698734372,14.816317744,INS_SOLUTION_GOOD*8dfd8bea
#INSPVAA,COM1,0,79.0,FINESTEERING,1846,572962.500,00004000,54e2,13306;1846,572962.500000000,41.39052547370,-73.95337364941,-27.9292,0.0001,-0.0056,0.0012,0.317956013,5.700541137,14.767412692,INS_SOLUTION_GOOD*6b9296fb
#INSPVAA,COM1,0,79.0,FINESTEERING,1846,572963.000,00004000,54e2,13306;1846,572963.000000000,41.39052548003,-73.95337364198,-27.9272,-0.0004,-0.0067,0.0006,0.317202734,5.699039849,14.766575044,INS_SOLUTION_GOOD*49c594f7
#INSPVAA,COM1,0,80.0,FINESTEERING,1846,572963.500,00004000,54e2,13306;1846,572963.500000000,41.39052548708,-73.95337363698,-27.9253,-0.0001,-0.0038,0.0000,0.322292765,5.698491417,14.723833378,INS_SOLUTION_GOOD*38f8997a
#INSPVAA,COM1,0,80.0,FINESTEERING,1846,572964.000,00004000,54e2,13306;1846,572964.000000000,41.39052549502,-73.95337363418,-27.9234,0.0017,-0.0048,0.0004,0.321254434,5.698283595,14.725968121,INS_SOLUTION_GOOD*09604f48
#INSPVAA,COM1,0,80.0,FINESTEERING,1846,572964.500,00004000,54e2,13306;1846,572964.500000000,41.39052550398,-73.95337363318,-27.9215,0.0011,-0.0039,-0.0001,0.324851518,5.700375620,14.699646138,INS_SOLUTION_GOOD*511498aa
#INSPVAA,COM1,0,80.0,FINESTEERING,1846,572965.000,00004000,54e2,13306;1846,572965.000000000,41.39052551371,-73.95337363406,-27.9197,0.0009,-0.0085,0.0012,0.330299750,5.705523121,14.698237205,INS_SOLUTION_GOOD*e6fa2d87
#INSPVAA,COM1,0,80.0,FINESTEERING,1846,572965.500,00004000,54e2,13306;1846,572965.500000000,41.39052552389,-73.95337363652,-27.9178,-0.0008,-0.0039,-0.0021,0.317834128,5.709030020,14.676310755,INS_SOLUTION_GOOD*db774ba8
#INSPVAA,COM1,0,80.0,FINESTEERING,1846,572966.000,00004000,54e2,13306;1846,572966.000000000,41.39052553440,-73.95337363971,-27.9160,-0.0007,-0.0033,-0.0030,0.338038185,5.702438194,14.647862838,INS_SOLUTION_GOOD*23dd6405
#INSPVAA,COM1,0,80.0,FINESTEERING,1846,572966.500,00004000,54e2,13306;1846,572966.500000000,41.39052554557,-73.95337364353,-27.9142,-0.0001,-0.0025,-0.0014,0.312222561,5.704318327,14.660145993,INS_SOLUTION_GOOD*a15fb68c
#INSPVAA,COM1,0,80.0,FINESTEERING,1846,572967.000,00004000,54e2,13306;1846,572967.000000000,41.39052555704,-73.95337364771,-27.9126,0.0017,-0.0013,-0.0040,0.318848006,5.704868287,14.669637955,INS_SOLUTION_GOOD*421f77e7
#INSPVAA,COM1,0,80.0,FINESTEERING,1846,572967.500,00004000,54e2,13306;1846,572967.500000000,41.39052581105,-73.95337373890,-27.8798,-0.0006,-0.0037,-0.0045,0.319568356,5.703875526,14.677833482,INS_SOLUTION_GOOD*c0bb2ca4
#INSPVAA,COM1,0,80.0,FINESTEERING,1846,572968.000,00004000,54e2,13306;1846,572968.000000000,41.39052586646,-73.95337376569,-27.8748,-0.0020,-0.0028,-0.0029,0.317739778,5.705953389,14.664038711,INS_SOLUTION_GOOD*67b3852c
#INSPVAA,COM1,0,80.0,FINESTEERING,1846,572968.500,00004000,54e2,13306;1846,572968.500000000,41.39052592758,-73.95337378546,-27.8672,-0.0047,-0.0029,-0.0018,0.338974090,5.706203100,14.584632831,INS_SOLUTION_GOOD*b36e148a
#INSPVAA,COM1,0,80.0,FINESTEERING,1846,572969.000,00004000,54e2,13306;1846,572969.000000000,41.39052599453,-73.95337382148,-27.8593,-0.0038,-0.0032,-0.0019,0.326736635,5.704743331,14.646457394,INS_SOLUTION_GOOD*9a0a0748
#INSPVAA,COM1,0,80.0,FINESTEERING,1846,572969.500,00004000,54e2,13306;1846,572969.500000000,41.39052606975,-73.95337385025,-27.8491,-0.0063,-0.0047,-0.0044,0.324785759,5.706981796,14.640987209,INS_SOLUTION_GOOD*4bef2fb6
#INSPVAA,COM1,0,80.0,FINESTEERING,1846,572970.000,00004000,54e2,13306;1846,572970.000000000,41.39052613913,-73.95337387336,-27.8392,-0.0065,-0.0046,-0.0040,0.330813212,5.705819930,14.630215020,INS_SOLUTION_GOOD*86bf37f8
#INSPVAA,COM1,0,80.0,FINESTEERING,1846,572970.500,00004000,54e2,13306;1846,572970.500000000,41.39052624199,-73.95337388036,-27.8241,-0.0081,-0.0049,-0.0052,0.333332277,5.706699308,14.613714942,INS_SOLUTION_GOOD*e7fda0f2
#INSPVAA,COM1,0,79.5,FINESTEERING,1846,572971.000,00004000,54e2,13306;1846,572971.000000000,41.39052634245,-73.95337389282,-27.8096,-0.0085,-0.0059,-0.0059,0.328640485,5.706542617,14.618383511,INS_SOLUTION_GOOD*6ec5713f
#INSPVAA,COM1,0,79.5,FINESTEERING,1846,572971.500,00004000,54e2,13306;1846,572971.500000000,41.39052637961,-73.95337386775,-27.8194,-0.0027,-0.0013,-0.0034,0.330943006,5.700279699,14.566732170,INS_SOLUTION_GOOD*04fc2239
#INSPVAA,COM1,0,79.5,FINESTEERING,1846,572972.000,00004000,54e2,13306;1846,572972.000000000,41.39052639670,-73.95337385208,-27.8253,-0.0021,-0.0008,-0.0063,0.329845876,5.701350086,14.568271888,INS_SOLUTION_GOOD*64627cd8
#INSPVAA,COM1,0,80.0,FINESTEERING,1846,572972.500,00004000,54e2,13306;1846,572972.500000000,41.39052641224,-73.95337384069,-27.8304,-0.0011,-0.0005,-0.0053,0.330636744,5.700241607,14.558786906,INS_SOLUTION_GOOD*1df0dc9f
#INSPVAA,COM1,0,80.0,FINESTEERING,1846,572973.000,00004000,54e2,13306;1846,572973.000000000,41.39052642749,-73.95337383031,-27.8355,-0.0004,0.0004,-0.0042,0.327343840,5.700614461,14.567334655,INS_SOLUTION_GOOD*934bd805
#INSPVAA,COM1,0,80.0,FINESTEERING,1846,572973.500,00004000,54e2,13306;1846,572973.500000000,41.39052644160,-73.95337382041,-27.8397,-0.0012,0.0012,-0.0025,0.331966086,5.701347350,14.547261236,INS_SOLUTION_GOOD*57a9a6f7
#INSPVAA,COM1,0,80.0,FINESTEERING,1846,572974.000,00004000,54e2,13306;1846,572974.000000000,41.39052645566,-73.95337381105,-27.8435,-0.0002,0.0006,-0.0010,0.332449318,5.700588474,14.548372953,INS_SOLUTION_GOOD*8d33663e
#INSPVAA,COM1,0,80.0,FINESTEERING,1846,572974.500,00004000,54e2,13306;1846,572974.500000000,41.39052646874,-73.95337380323,-27.8464,0.0005,-0.0004,0.0014,0.334013739,5.703391588,14.522752414,INS_SOLUTION_GOOD*bd9f68ea
#INSPVAA,COM1,0,80.0,FINESTEERING,1846,572975.000,00004000,54e2,13306;1846,572975.000000000,41.39052648167,-73.95337379681,-27.8487,0.0009,-0.0019,0.0019,0.331905711,5.702549966,14.532767612,INS_SOLUTION_GOOD*fe6e4472
#INSPVAA,COM1,0,80.0,FINESTEERING,1846,572975.500,00004000,54e2,13306;1846,572975.500000000,41.39052649397,-73.95337379157,-27.8504,0.0010,-0.0010,0.0026,0.329108832,5.703571484,14.537716376,INS_SOLUTION_GOOD*d3bb6dfb
#INSPVAA,COM1,0,80.0,FINESTEERING,1846,572976.000,00004000,54e2,13306;1846,572976.000000000,41.39052650579,-73.95337378729,-27.8516,0.0006,-0.0024,0.0045,0.328508813,5.703435110,14.539126543,INS_SOLUTION_GOOD*c1b35408
#INSPVAA,COM1,0,80.0,FINESTEERING,1846,572976.500,00004000,54e2,13306;1846,572976.500000000,41.39052651698,-73.95337378375,-27.8523,0.0009,-0.0021,0.0035,0.329863865,5.705085680,14.531147276,INS_SOLUTION_GOOD*ddcd1ce2
#INSPVAA,COM1,0,80.0,FINESTEERING,1846,572977.000,00004000,54e2,13306;1846,572977.000000000,41.39052652793,-73.95337378139,-27.8525,0.0009,-0.0032,0.0049,0.325631726,5.704473060,14.536366246,INS_SOLUTION_GOOD*61a20e92
#INSPVAA,COM1,0,80.0,FINESTEERING,1846,572977.500,00004000,54e2,13306;1846,572977.500000000,41.39052653858,-73.95337377956,-27.8523,0.0018,-0.0019,0.0050,0.328099770,5.704151518,14.532255832,INS_SOLUTION_GOOD*59e63cc3
#INSPVAA,COM1,0,80.0,FINESTEERING,1846,572978.000,00004000,54e2,13306;1846,572978.000000000,41.39052654911,-73.95337377861,-27.8518,0.0011,-0.0038,0.0054,0.325493970,5.706068248,14.531397843,INS_SOLUTION_GOOD*c325ad4e
#INSPVAA,COM1,0,80.0,FINESTEERING,1846,572978.500,00004000,54e2,13306;1846,572978.500000000,41.39052655911,-73.95337377780,-27.8510,0.0002,-0.0013,0.0044,0.325949301,5.705742140,14.529350329,INS_SOLUTION_GOOD*8e40161c
#INSPVAA,COM1,0,80.0,FINESTEERING,1846,572979.000,00004000,54e2,13306;1846,572979.000000000,41.39052656852,-73.95337377713,-27.8499,-0.0001,-0.0017,0.0048,0.326779398,5.704680970,14.530521688,INS_SOLUTION_GOOD*31bd58a8
#INSPVAA,COM1,0,80.0,FINESTEERING,1846,572979.500,00004000,54e2,13306;1846,572979.500000000,41.39052657725,-73.95337377634,-27.8487,-0.0010,-0.0010,0.0038,0.329130783,5.706784539,14.533032354,INS_SOLUTION_GOOD*5dddcb6c
#INSPVAA,COM1,0,80.0,FINESTEERING,1846,572980.000,00004000,54e2,13306;1846,572980.000000000,41.39052658518,-73.95337377540,-27.8473,-0.0017,-0.0012,0.0055,0.328651071,5.706027643,14.533590896,INS_SOLUTION_GOOD*45ba9e0c
#INSPVAA,COM1,0,80.5,FINESTEERING,1846,572980.500,00004000,54e2,13306;1846,572980.500000000,41.39052659248,-73.95337377428,-27.8457,-0.0014,-0.0010,0.0040,0.326322500,5.706753855,14.529905725,INS_SOLUTION_GOOD*ce6ce1ff
#INSPVAA,COM1,0,78.5,FINESTEERING,1846,572981.000,00004000,54e2,13306;1846,572981.000000000,41.39052659896,-73.95337377305,-27.8440,-0.0053,-0.0019,0.0050,0.325115066,5.708774655,14.528299219,INS_SOLUTION_GOOD*e0553608
#INSPVAA,COM1,0,78.5,FINESTEERING,1846,572981.500,00004000,54e2,13306;1846,572981.500000000,41.39052660504,-73.95337377146,-27.8423,-0.0008,0.0021,0.0046,0.329375396,5.704111982,14.495659950,INS_SOLUTION_GOOD*2c94d05a
#INSPVAA,COM1,0,78.5,FINESTEERING,1846,572982.000,00004000,54e2,13306;1846,572982.000000000,41.39052661072,-73.95337376936,-27.8404,-0.0019,0.0015,0.0040,0.330388776,5.705332103,14.486782287,INS_SOLUTION_GOOD*2b21d877
#INSPVAA,COM1,0,79.0,FINESTEERING,1846,572982.500,00004000,54e2,13306;1846,572982.500000000,41.39052661629,-73.95337376673,-27.8384,0.0008,0.0024,0.0028,0.331687991,5.704916802,14.476902967,INS_SOLUTION_GOOD*bd42d1f5
#INSPVAA,COM1,0,77.0,FINESTEERING,1846,572983.000,00004000,54e2,13306;1846,572983.000000000,41.39052662190,-73.95337376339,-27.8365,-0.0001,0.0027,0.0000,0.332073471,5.706189524,14.476472766,INS_SOLUTION_GOOD*c49e9d0c
#INSPVAA,COM1,0,77.0,FINESTEERING,1846,572983.500,00004000,54e2,13306;1846,572983.500000000,41.39052662743,-73.95337375970,-27.8346,-0.0002,0.0012,-0.0004,0.329930529,5.705848703,14.474169022,INS_SOLUTION_GOOD*9eead8be
#INSPVAA,COM1,0,77.0,FINESTEERING,1846,572984.000,00004000,54e2,13306;1846,572984.000000000,41.39052663284,-73.95337375560,-27.8327,-0.0001,0.0019,-0.0015,0.329006725,5.704340636,14.478627879,INS_SOLUTION_GOOD*2a1244a7
#INSPVAA,COM1,0,79.5,FINESTEERING,1846,572984.500,00004000,54e2,13306;1846,572984.500000000,41.39052663809,-73.95337375109,-27.8309,-0.0007,0.0019,-0.0022,0.328141968,5.706116136,14.474744596,INS_SOLUTION_GOOD*56fd6588
#INSPVAA,COM1,0,79.5,FINESTEERING,1846,572985.000,00004000,54e2,13306;1846,572985.000000000,41.39052664301,-73.95337374624,-27.8292,-0.0005,0.0003,-0.0018,0.334454860,5.700381525,14.448821923,INS_SOLUTION_GOOD*3d92b07c
#INSPVAA,COM1,0,80.0,FINESTEERING,1846,572985.500,00004000,54e2,13306;1846,572985.500000000,41.39052664760,-73.95337374108,-27.8274,-0.0020,0.0004,-0.0005,0.331078589,5.700565206,14.444991861,INS_SOLUTION_GOOD*7b0766ca
#INSPVAA,COM1,0,77.5,FINESTEERING,1846,572986.000,00004000,54e2,13306;1846,572986.000000000,41.39052665177,-73.95337373571,-27.8258,-0.0021,0.0003,-0.0017,0.331345308,5.701653336,14.446093227,INS_SOLUTION_GOOD*96f610b5
#INSPVAA,COM1,0,77.5,FINESTEERING,1846,572986.500,00004000,54e2,13306;1846,572986.500000000,41.39052665567,-73.95337373025,-27.8241,-0.0021,0.0001,-0.0007,0.330347334,5.700814619,14.434457204,INS_SOLUTION_GOOD*894d64ed
#INSPVAA,COM1,0,77.5,FINESTEERING,1846,572987.000,00004000,54e2,13306;1846,572987.000000000,41.39052665928,-73.95337372476,-27.8225,-0.0020,-0.0000,-0.0015,0.330866369,5.701124372,14.433188926,INS_SOLUTION_GOOD*58f037e5
#INSPVAA,COM1,0,78.0,FINESTEERING,1846,572987.500,00004000,54e2,13306;1846,572987.500000000,41.39052666272,-73.95337371928,-27.8209,-0.0016,0.0011,-0.0022,0.331654678,5.701383782,14.429923606,INS_SOLUTION_GOOD*5b521534
#INSPVAA,COM1,0,78.0,FINESTEERING,1846,572988.000,00004000,54e2,13306;1846,572988.000000000,41.39052666600,-73.95337371369,-27.8194,-0.0017,0.0015,-0.0011,0.331866193,5.699439220,14.427684629,INS_SOLUTION_GOOD*dba6a9b9
#INSPVAA,COM1,0,79.5,FINESTEERING,1846,572988.500,00004000,54e2,13306;1846,572988.500000000,41.39052666915,-73.95337370806,-27.8179,-0.0001,0.0002,-0.0029,0.333199155,5.701915650,14.429656079,INS_SOLUTION_GOOD*5c6eb7a6
#INSPVAA,COM1,0,78.5,FINESTEERING,1846,572989.000,00004000,54e2,13306;1846,572989.000000000,41.39052667221,-73.95337370242,-27.8164,-0.0002,-0.0013,-0.0011,0.334910578,5.703695153,14.421362867,INS_SOLUTION_GOOD*a95131ee
#INSPVAA,COM1,0,78.5,FINESTEERING,1846,572989.500,00004000,54e2,13306;1846,572989.500000000,41.39052667506,-73.95337369676,-27.8150,-0.0022,-0.0010,-0.0010,0.335321099,5.704770916,14.423169773,INS_SOLUTION_GOOD*c896adcf
#INSPVAA,COM1,0,77.0,FINESTEERING,1846,572990.000,00004000,54e2,13306;1846,572990.000000000,41.39052667766,-73.95337369107,-27.8136,-0.0024,0.0007,0.0002,0.334770541,5.705102363,14.423010404,INS_SOLUTION_GOOD*c635ba19
#INSPVAA,COM1,0,77.0,FINESTEERING,1846,572990.500,00004000,54e2,13306;1846,572990.500000000,41.39052668012,-73.95337368541,-27.8122,-0.0003,-0.0006,-0.0001,0.326097513,5.698405415,14.416762002,INS_SOLUTION_GOOD*fb0c71bd
#INSPVAA,COM1,0,77.0,FINESTEERING,1846,572991.000,00004000,54e2,13306;1846,572991.000000000,41.39052668252,-73.95337367986,-27.8108,-0.0009,-0.0013,0.0009,0.330878069,5.699513470,14.413573722,INS_SOLUTION_GOOD*de66942a
#INSPVAA,COM1,0,80.0,FINESTEERING,1846,572991.500,00004000,54e2,13306;1846,572991.500000000,41.39052668485,-73.95337367435,-27.8094,-0.0011,0.0005,0.0016,0.331586159,5.698918144,14.431923086,INS_SOLUTION_GOOD*5b34c6e9
#INSPVAA,COM1,0,79.0,FINESTEERING,1846,572992.000,00004000,54e2,13306;1846,572992.000000000,41.39052668704,-73.95337366874,-27.8080,-0.0015,0.0003,-0.0003,0.331945687,5.700386739,14.430209198,INS_SOLUTION_GOOD*5c21ee38
#INSPVAA,COM1,0,79.0,FINESTEERING,1846,572992.500,00004000,54e2,13306;1846,572992.500000000,41.39052668908,-73.95337366301,-27.8066,-0.0008,-0.0006,0.0020,0.345467899,5.703311196,14.412177470,INS_SOLUTION_GOOD*98948aeb
#INSPVAA,COM1,0,77.0,FINESTEERING,1846,572993.000,00004000,54e2,13306;1846,572993.000000000,41.39052669104,-73.95337365732,-27.8052,-0.0005,-0.0010,-0.0007,0.340581170,5.704564268,14.422622768,INS_SOLUTION_GOOD*4480ee1c
#INSPVAA,COM1,0,77.0,FINESTEERING,1846,572993.500,00004000,54e2,13306;1846,572993.500000000,41.39052669300,-73.95337365158,-27.8039,-0.0002,0.0004,0.0000,0.337029176,5.705487351,14.431341257,INS_SOLUTION_GOOD*99de9dd9
#INSPVAA,COM1,0,77.0,FINESTEERING,1846,572994.000,00004000,54e2,13306;1846,572994.000000000,41.39052669497,-73.95337364576,-27.8025,-0.0003,0.0006,0.0000,0.335703536,5.705789891,14.433519014,INS_SOLUTION_GOOD*2b3ab52d
#INSPVAA,COM1,0,79.0,FINESTEERING,1846,572994.500,00004000,54e2,13306;1846,572994.500000000,41.39052669691,-73.95337363987,-27.8012,0.0015,-0.0009,0.0004,0.335006688,5.701709090,14.412739922,INS_SOLUTION_GOOD*e77b61bb
#INSPVAA,COM1,0,79.0,FINESTEERING,1846,572995.000,00004000,54e2,13306;1846,572995.000000000,41.39052669890,-73.95337363391,-27.7999,0.0020,0.0015,0.0021,0.331815610,5.702702697,14.458668356,INS_SOLUTION_GOOD*e88a7b5f
#INSPVAA,COM1,0,80.0,FINESTEERING,1846,572995.500,00004000,54e2,13306;1846,572995.500000000,41.39052670075,-73.95337362790,-27.7986,-0.0026,-0.0007,0.0022,0.334528443,5.701839457,14.443441693,INS_SOLUTION_GOOD*9681da83
#INSPVAA,COM1,0,78.0,FINESTEERING,1846,572996.000,00004000,54e2,13306;1846,572996.000000000,41.39052670226,-73.95337362184,-27.7972,-0.0043,-0.0018,0.0002,0.329938034,5.708957438,14.407483930,INS_SOLUTION_GOOD*89bd5189
