.0,U-9=]9±0,1388.000,004c0000,54e2,13306;0,1388.000000000,0.00000000000,0.00000000000,0.0000,0.0000,0.0000,0.0000,0.000000000,0.000000000,0.000000000,WAITING_INITIALPOS*3033c4f2

<OK
[COM1]
<OK
[COM1]#INSPVAA,COM1,0,65.0,UNKNOWN,0,1388.500,004c0000,54e2,13306;0,1388.500000000,0.00000000000,0.00000000000,0.0000,0.0000,0.0000,0.0000,0.000000000,0.000000000,0.000000000,WAITING_INITIALPOS*1bee3104
#INSPVAA,COM1,0,81.0,UNKNOWN,0,1389.000,004c0000,54e2,13306;0,1389.000000000,0.00000000000,0.00000000000,0.0000,0.0000,0.0000,0.0000,0.000000000,0.000000000,0.000000000,WAITING_INITIALPOS*9f04bac6
#INSPVAA,COM1,0,81.0,UNKNOWN,0,1389.500,004c0000,54e2,13306;0,1389.500000000,0.00000000000,0.00000000000,0.0000,0.0000,0.0000,0.0000,0.000000000,0.000000000,0.000000000,WAITING_INITIALPOS*b4d94f30
#INSPVAA,COM1,0,81.5,UNKNOWN,0,1390.000,004c0000,54e2,13306;0,1390.000000000,0.00000000000,0.00000000000,0.0000,0.0000,0.0000,0.0000,0.000000000,0.000000000,0.000000000,WAITING_INITIALPOS*bcf6c980
#INSPVAA,COM1,0,73.0,UNKNOWN,0,1390.500,004c0000,54e2,13306;0,1390.500000000,0.00000000000,0.00000000000,0.0000,0.0000,0.0000,0.0000,0.000000000,0.000000000,0.000000000,WAITING_INITIALPOS*6c827cab
#INSPVAA,COM1,0,73.0,UNKNOWN,0,1391.000,004c0000,54e2,13306;0,1391.000000000,0.00000000000,0.00000000000,0.0000,0.0000,0.0000,0.0000,0.000000000,0.000000000,0.000000000,WAITING_INITIALPOS*6efa94ec
#INSPVAA,COM1,0,73.0,UNKNOWN,0,1391.500,004c0000,54e2,13306;0,1391.500000000,0.00000000000,0.00000000000,0.0000,0.0000,0.0000,0.0000,0.000000000,0.000000000,0.000000000,WAITING_INITIALPOS*4527611a
#INSPVAA,COM1,0,76.5,UNKNOWN,0,1392.000,004c0000,54e2,13306;0,1392.000000000,0.00000000000,0.00000000000,0.0000,0.0000,0.0000,0.0000,0.000000000,0.000000000,0.000000000,WAITING_INITIALPOS*750f4eaf
#INSPVAA,COM1,0,76.5,UNKNOWN,0,1392.500,004c0000,54e2,13306;0,1392.500000000,0.00000000000,0.00000000000,0.0000,0.0000,0.0000,0.0000,0.000000000,0.000000000,0.000000000,WAITING_INITIALPOS*5ed2bb59
#INSPVAA,COM1,0,79.5,UNKNOWN,0,1393.000,004c0000,54e2,13306;0,1393.000000000,0.00000000000,0.00000000000,0.0000,0.0000,0.0000,0.0000,0.000000000,0.000000000,0.000000000,WAITING_INITIALPOS*9f47b3e5
#INSPVAA,COM1,0,72.0,UNKNOWN,0,1393.500,004c0000,54e2,13306;0,1393.500000000,0.00000000000,0.00000000000,0.0000,0.0000,0.0000,0.0000,0.000000000,0.000000000,0.000000000,WAITING_INITIALPOS*6ecf48b0
#INSPVAA,COM1,0,72.0,UNKNOWN,0,1394.000,004c0000,54e2,13306;0,1394.000000000,0.00000000000,0.00000000000,0.0000,0.0000,0.0000,0.0000,0.000000000,0.000000000,0.000000000,WAITING_INITIALPOS*9969ed51
#INSPVAA,COM1,0,61.5,UNKNOWN,0,1394.500,004c0000,54e2,13306;0,1394.500000000,0.00000000000,0.00000000000,0.0000,0.0000,0.0000,0.0000,0.000000000,0.000000000,0.000000000,WAITING_INITIALPOS*8ed46456
#INSPVAA,COM1,0,61.5,UNKNOWN,0,1395.000,004c0000,54e2,13306;0,1395.000000000,0.00000000000,0.00000000000,0.0000,0.0000,0.0000,0.0000,0.000000000,0.000000000,0.000000000,WAITING_INITIALPOS*8cac8c11
#INSPVAA,COM1,0,61.5,UNKNOWN,0,1395.500,004c0000,54e2,13306;0,1395.500000000,0.00000000000,0.00000000000,0.0000,0.0000,0.0000,0.0000,0.000000000,0.000000000,0.000000000,WAITING_INITIALPOS*a77179e7
#INSPVAA,COM1,0,72.0,UNKNOWN,0,1396.000,004c0000,54e2,13306;0,1396.000000000,0.00000000000,0.00000000000,0.0000,0.0000,0.0000,0.0000,0.000000000,0.000000000,0.000000000,WAITING_INITIALPOS*ca23d633
#INSPVAA,COM1,0,72.0,UNKNOWN,0,1396.500,004c0000,54e2,13306;0,1396.500000000,0.00000000000,0.00000000000,0.0000,0.0000,0.0000,0.0000,0.000000000,0.000000000,0.000000000,WAITING_INITIALPOS*e1fe23c5
#INSPVAA,COM1,0,75.0,UNKNOWN,0,1397.000,004c0000,54e2,13306;0,1397.000000000,0.00000000000,0.00000000000,0.0000,0.0000,0.0000,0.0000,0.000000000,0.000000000,0.000000000,WAITING_INITIALPOS*5399b1bb
#INSPVAA,COM1,0,75.0,UNKNOWN,0,1397.500,004c0000,54e2,13306;0,1397.500000000,0.00000000000,0.00000000000,0.0000,0.0000,0.0000,0.0000,0.000000000,0.000000000,0.000000000,WAITING_INITIALPOS*7844444d
#INSPVAA,COM1,0,76.0,UNKNOWN,0,1398.000,004c0000,54e2,13306;0,1398.000000000,0.00000000000,0.00000000000,0.0000,0.0000,0.0000,0.0000,0.000000000,0.000000000,0.000000000,WAITING_INITIALPOS*905d3d3d
#INSPVAA,COM1,0,76.0,UNKNOWN,0,1398.500,004c0000,54e2,13306;0,1398.500000000,0.00000000000,0.00000000000,0.0000,0.0000,0.0000,0.0000,0.000000000,0.000000000,0.000000000,WAITING_INITIALPOS*bb80c8cb
#INSPVAA,COM1,0,78.5,UNKNOWN,0,1399.000,004c0000,54e2,13306;0,1399.000000000,0.00000000000,0.00000000000,0.0000,0.0000,0.0000,0.0000,0.000000000,0.000000000,0.000000000,WAITING_INITIALPOS*22f67186
#INSPVAA,COM1,0,76.0,UNKNOWN,0,1399.500,004c0000,54e2,13306;0,1399.500000000,0.00000000000,0.00000000000,0.0000,0.0000,0.0000,0.0000,0.000000000,0.000000000,0.000000000,WAITING_INITIALPOS*9225d57a
#INSPVAA,COM1,0,76.0,UNKNOWN,0,1400.000,004c0000,54e2,13306;0,1400.000000000,0.00000000000,0.00000000000,0.0000,0.0000,0.0000,0.0000,0.000000000,0.000000000,0.000000000,WAITING_INITIALPOS*368dda15
#INSPVAA,COM1,0,71.5,UNKNOWN,0,1400.500,004c0000,54e2,13306;0,1400.500000000,0.00000000000,0.00000000000,0.0000,0.0000,0.0000,0.0000,0.000000000,0.000000000,0.000000000,WAITING_INITIALPOS*8d0ef6e3
#INSPVAA,COM1,0,71.5,UNKNOWN,0,1401.000,004c0000,54e2,13306;0,1401.000000000,0.00000000000,0.00000000000,0.0000,0.0000,0.0000,0.0000,0.000000000,0.000000000,0.000000000,WAITING_INITIALPOS*8f761ea4
#INSPVAA,COM1,0,64.0,UNKNOWN,0,1401.500,004c0000,54e2,13306;0,1401.500000000,0.00000000000,0.00000000000,0.0000,0.0000,0.0000,0.0000,0.000000000,0.000000000,0.000000000,WAITING_INITIALPOS*5076ff52
#INSPVAA,COM1,0,64.0,UNKNOWN,0,1402.000,004c0000,54e2,13306;0,1402.000000000,0.00000000000,0.00000000000,0.0000,0.0000,0.0000,0.0000,0.000000000,0.000000000,0.000000000,WAITING_INITIALPOS*01442c77
#INSPVAA,COM1,0,58.0,UNKNOWN,0,1402.500,004c0000,54e2,13306;0,1402.500000000,0.00000000000,0.00000000000,0.0000,0.0000,0.0000,0.0000,0.000000000,0.000000000,0.000000000,WAITING_INITIALPOS*05ab31d3
#INSPVAA,COM1,0,58.0,UNKNOWN,0,1403.000,004c0000,54e2,13306;0,1403.000000000,0.00000000000,0.00000000000,0.0000,0.0000,0.0000,0.0000,0.000000000,0.000000000,0.000000000,WAITING_INITIALPOS*07d3d994
#INSPVAA,COM1,0,58.0,UNKNOWN,0,1403.500,004c0000,54e2,13306;0,1403.500000000,0.00000000000,0.00000000000,0.0000,0.0000,0.0000,0.0000,0.000000000,0.000000000,0.000000000,WAITING_INITIALPOS*2c0e2c62
#INSPVAA,COM1,0,81.5,UNKNOWN,0,1404.000,004c0000,54e2,13306;0,1404.000000000,0.00000000000,0.00000000000,0.0000,0.0000,0.0000,0.0000,0.000000000,0.000000000,0.000000000,WAITING_INITIALPOS*2aebb3a5
#INSPVAA,COM1,0,65.0,UNKNOWN,0,1404.500,004c0000,54e2,13306;0,1404.500000000,0.00000000000,0.00000000000,0.0000,0.0000,0.0000,0.0000,0.000000000,0.000000000,0.000000000,WAITING_INITIALPOS*a7e586ef
#INSPVAA,COM1,0,65.0,UNKNOWN,0,1405.000,004c0000,54e2,13306;0,1405.000000000,0.00000000000,0.00000000000,0.0000,0.0000,0.0000,0.0000,0.000000000,0.000000000,0.000000000,WAITING_INITIALPOS*a59d6ea8
#INSPVAA,COM1,0,65.0,UNKNOWN,0,1405.500,004c0000,54e2,13306;0,1405.500000000,0.00000000000,0.00000000000,0.0000,0.0000,0.0000,0.0000,0.000000000,0.000000000,0.000000000,WAITING_INITIALPOS*8e409b5e
#INSPVAA,COM1,0,72.0,UNKNOWN,0,1406.000,004c0000,54e2,13306;0,1406.000000000,0.00000000000,0.00000000000,0.0000,0.0000,0.0000,0.0000,0.000000000,0.000000000,0.000000000,WAITING_INITIALPOS*faaadad2
#INSPVAA,COM1,0,72.0,UNKNOWN,0,1406.500,004c0000,54e2,13306;0,1406.500000000,0.00000000000,0.00000000000,0.0000,0.0000,0.0000,0.0000,0.000000000,0.000000000,0.000000000,WAITING_INITIALPOS*d1772f24
#INSPVAA,COM1,0,78.5,UNKNOWN,0,1407.000,004c0000,54e2,13306;0,1407.000000000,0.00000000000,0.00000000000,0.0000,0.0000,0.0000,0.0000,0.000000000,0.000000000,0.000000000,WAITING_INITIALPOS*71f8db08
#INSPVAA,COM1,0,68.5,UNKNOWN,0,1407.500,004c0000,54e2,13306;0,1407.500000000,0.00000000000,0.00000000000,0.0000,0.0000,0.0000,0.0000,0.000000000,0.000000000,0.000000000,WAITING_INITIALPOS*cfe2c66e
#INSPVAA,COM1,0,68.5,UNKNOWN,0,1408.000,004c0000,54e2,13306;0,1408.000000000,0.00000000000,0.00000000000,0.0000,0.0000,0.0000,0.0000,0.000000000,0.000000000,0.000000000,WAITING_INITIALPOS*ae1d8846
#INSPVAA,COM1,0,68.5,UNKNOWN,0,1408.500,004c0000,54e2,13306;0,1408.500000000,0.00000000000,0.00000000000,0.0000,0.0000,0.0000,0.0000,0.000000000,0.000000000,0.000000000,WAITING_INITIALPOS*85c07db0
#INSPVAA,COM1,0,77.5,UNKNOWN,0,1409.000,004c0000,54e2,13306;0,1409.000000000,0.00000000000,0.00000000000,0.0000,0.0000,0.0000,0.0000,0.000000000,0.000000000,0.000000000,WAITING_INITIALPOS*d1929d9c
#INSPVAA,COM1,0,77.5,UNKNOWN,0,1409.500,004c0000,54e2,13306;0,1409.500000000,0.00000000000,0.00000000000,0.0000,0.0000,0.0000,0.0000,0.000000000,0.000000000,0.000000000,WAITING_INITIALPOS*fa4f686a
#INSPVAA,COM1,0,79.5,UNKNOWN,0,1410.000,004c0000,54e2,13306;0,1410.000000000,0.00000000000,0.00000000000,0.0000,0.0000,0.0000,0.0000,0.000000000,0.000000000,0.000000000,WAITING_INITIALPOS*696ebfd0
#INSPVAA,COM1,0,70.5,UNKNOWN,0,1410.500,004c0000,54e2,13306;0,1410.500000000,0.00000000000,0.00000000000,0.0000,0.0000,0.0000,0.0000,0.000000000,0.000000000,0.000000000,WAITING_INITIALPOS*49e3c22c
#INSPVAA,COM1,0,70.5,UNKNOWN,0,1411.000,004c0000,54e2,13306;0,1411.000000000,0.00000000000,0.00000000000,0.0000,0.0000,0.0000,0.0000,0.000000000,0.000000000,0.000000000,WAITING_INITIALPOS*4b9b2a6b
#INSPVAA,COM1,0,70.5,UNKNOWN,0,1411.500,004c0000,54e2,13306;0,1411.500000000,0.00000000000,0.00000000000,0.0000,0.0000,0.0000,0.0000,0.000000000,0.000000000,0.000000000,WAITING_INITIALPOS*6046df9d
#INSPVAA,COM1,0,75.5,UNKNOWN,0,1412.000,004c0000,54e2,13306;0,1412.000000000,0.00000000000,0.00000000000,0.0000,0.0000,0.0000,0.0000,0.000000000,0.000000000,0.000000000,WAITING_INITIALPOS*702f5311
#INSPVAA,COM1,0,75.5,UNKNOWN,0,1412.500,004c0000,54e2,13306;0,1412.500000000,0.00000000000,0.00000000000,0.0000,0.0000,0.0000,0.0000,0.000000000,0.000000000,0.000000000,WAITING_INITIALPOS*5bf2a6e7
#INSPVAA,COM1,0,78.5,UNKNOWN,0,1413.000,004c0000,54e2,13306;0,1413.000000000,0.00000000000,0.00000000000,0.0000,0.0000,0.0000,0.0000,0.000000000,0.000000000,0.000000000,WAITING_INITIALPOS*6b238bcb
#INSPVAA,COM1,0,78.0,UNKNOWN,0,1413.500,004c0000,54e2,13306;0,1413.500000000,0.00000000000,0.00000000000,0.0000,0.0000,0.0000,0.0000,0.000000000,0.000000000,0.000000000,WAITING_INITIALPOS*60bfdd04
#INSPVAA,COM1,0,78.0,UNKNOWN,0,1414.000,004c0000,54e2,13306;0,1414.000000000,0.00000000000,0.00000000000,0.0000,0.0000,0.0000,0.0000,0.000000000,0.000000000,0.000000000,WAITING_INITIALPOS*971978e5
#INSPVAA,COM1,0,78.0,UNKNOWN,0,1414.500,004c0000,54e2,13306;0,1414.500000000,0.00000000000,0.00000000000,0.0000,0.0000,0.0000,0.0000,0.000000000,0.000000000,0.000000000,WAITING_INITIALPOS*bcc48d13
#INSPVAA,COM1,0,79.0,UNKNOWN,0,1415.000,004c0000,54e2,13306;0,1415.000000000,0.00000000000,0.00000000000,0.0000,0.0000,0.0000,0.0000,0.000000000,0.000000000,0.000000000,WAITING_INITIALPOS*c61e779c
#INSPVAA,COM1,0,76.5,UNKNOWN,0,1415.500,004c0000,54e2,13306;0,1415.500000000,0.00000000000,0.00000000000,0.0000,0.0000,0.0000,0.0000,0.000000000,0.000000000,0.000000000,WAITING_INITIALPOS*0e6fc1a8
#INSPVAA,COM1,0,76.5,UNKNOWN,0,1416.000,004c0000,54e2,13306;0,1416.000000000,0.00000000000,0.00000000000,0.0000,0.0000,0.0000,0.0000,0.000000000,0.000000000,0.000000000,WAITING_INITIALPOS*5f5d128d
#INSPVAA,COM1,0,73.5,UNKNOWN,0,1416.500,004c0000,54e2,13306;0,1416.500000000,0.00000000000,0.00000000000,0.0000,0.0000,0.0000,0.0000,0.000000000,0.000000000,0.000000000,WAITING_INITIALPOS*35dbb8d2
#INSPVAA,COM1,0,73.5,UNKNOWN,0,1417.000,004c0000,54e2,13306;0,1417.000000000,0.00000000000,0.00000000000,0.0000,0.0000,0.0000,0.0000,0.000000000,0.000000000,0.000000000,WAITING_INITIALPOS*37a35095
#INSPVAA,COM1,0,73.5,UNKNOWN,0,1417.500,004c0000,54e2,13306;0,1417.500000000,0.00000000000,0.00000000000,0.0000,0.0000,0.0000,0.0000,0.000000000,0.000000000,0.000000000,WAITING_INITIALPOS*1c7ea563
#INSPVAA,COM1,0,76.0,UNKNOWN,0,1418.000,004c0000,54e2,13306;0,1418.000000000,0.00000000000,0.00000000000,0.0000,0.0000,0.0000,0.0000,0.000000000,0.000000000,0.000000000,WAITING_INITIALPOS*1c9b17db
#INSPVAA,COM1,0,76.0,UNKNOWN,0,1418.500,004c0000,54e2,13306;0,1418.500000000,0.00000000000,0.00000000000,0.0000,0.0000,0.0000,0.0000,0.000000000,0.000000000,0.000000000,WAITING_INITIALPOS*3746e22d
#INSPVAA,COM1,0,76.5,UNKNOWN,0,1419.000,004c0000,54e2,13306;0,1419.000000000,0.00000000000,0.00000000000,0.0000,0.0000,0.0000,0.0000,0.000000000,0.000000000,0.000000000,WAITING_INITIALPOS*157fa953
#INSPVAA,COM1,0,76.5,UNKNOWN,0,1419.500,004c0000,54e2,13306;0,1419.500000000,0.00000000000,0.00000000000,0.0000,0.0000,0.0000,0.0000,0.000000000,0.000000000,0.000000000,WAITING_INITIALPOS*3ea25ca5
#INSPVAA,COM1,0,74.0,UNKNOWN,0,1420.000,004c0000,54e2,13306;0,1420.000000000,0.00000000000,0.00000000000,0.0000,0.0000,0.0000,0.0000,0.000000000,0.000000000,0.000000000,WAITING_INITIALPOS*6426b5ca
#INSPVAA,COM1,0,74.0,UNKNOWN,0,1420.500,004c0000,54e2,13306;0,1420.500000000,0.00000000000,0.00000000000,0.0000,0.0000,0.0000,0.0000,0.000000000,0.000000000,0.000000000,WAITING_INITIALPOS*4ffb403c
#INSPVAA,COM1,0,74.0,UNKNOWN,0,1421.000,004c0000,54e2,13306;0,1421.000000000,0.00000000000,0.00000000000,0.0000,0.0000,0.0000,0.0000,0.000000000,0.000000000,0.000000000,WAITING_INITIALPOS*4d83a87b
#INSPVAA,COM1,0,75.5,UNKNOWN,0,1421.500,004c0000,54e2,13306;0,1421.500000000,0.00000000000,0.00000000000,0.0000,0.0000,0.0000,0.0000,0.000000000,0.000000000,0.000000000,WAITING_INITIALPOS*3ebdec7c
#INSPVAA,COM1,0,75.5,UNKNOWN,0,1422.000,004c0000,54e2,13306;0,1422.000000000,0.00000000000,0.00000000000,0.0000,0.0000,0.0000,0.0000,0.000000000,0.000000000,0.000000000,WAITING_INITIALPOS*6f8f3f59
#INSPVAA,COM1,0,81.0,UNKNOWN,0,1422.500,004c0000,54e2,13306;0,1422.500000000,0.00000000000,0.00000000000,0.0000,0.0000,0.0000,0.0000,0.000000000,0.000000000,0.000000000,WAITING_INITIALPOS*7746e283
#INSPVAA,COM1,0,76.0,UNKNOWN,0,1423.000,004c0000,54e2,13306;0,1423.000000000,0.00000000000,0.00000000000,0.0000,0.0000,0.0000,0.0000,0.000000000,0.000000000,0.000000000,WAITING_INITIALPOS*ef8db689
#INSPVAA,COM1,0,76.0,UNKNOWN,0,1423.500,004c0000,54e2,13306;0,1423.500000000,0.00000000000,0.00000000000,0.0000,0.0000,0.0000,0.0000,0.000000000,0.000000000,0.000000000,WAITING_INITIALPOS*c450437f
#INSPVAA,COM1,0,76.0,UNKNOWN,0,1424.000,004c0000,54e2,13306;0,1424.000000000,0.00000000000,0.00000000000,0.0000,0.0000,0.0000,0.0000,0.000000000,0.000000000,0.000000000,WAITING_INITIALPOS*33f6e69e
#INSPVAA,COM1,0,82.5,UNKNOWN,0,1424.500,004c0000,54e2,13306;0,1424.500000000,0.00000000000,0.00000000000,0.0000,0.0000,0.0000,0.0000,0.000000000,0.000000000,0.000000000,WAITING_INITIALPOS*2b3f3b44
#INSPVAA,COM1,0,82.0,UNKNOWN,0,1425.000,004c0000,54e2,13306;0,1425.000000000,0.00000000000,0.00000000000,0.0000,0.0000,0.0000,0.0000,0.000000000,0.000000000,0.000000000,WAITING_INITIALPOS*0906703a
#INSPVAA,COM1,0,82.0,UNKNOWN,0,1425.500,004c0000,54e2,13306;0,1425.500000000,0.00000000000,0.00000000000,0.0000,0.0000,0.0000,0.0000,0.000000000,0.000000000,0.000000000,WAITING_INITIALPOS*22db85cc
#INSPVAA,COM1,0,78.5,UNKNOWN,0,1426.000,004c0000,54e2,13306;0,1426.000000000,0.00000000000,0.00000000000,0.0000,0.0000,0.0000,0.0000,0.000000000,0.000000000,0.000000000,WAITING_INITIALPOS*fbb28cf6
#INSPVAA,COM1,0,78.5,UNKNOWN,0,1426.500,004c0000,54e2,13306;0,1426.500000000,0.00000000000,0.00000000000,0.0000,0.0000,0.0000,0.0000,0.000000000,0.000000000,0.000000000,WAITING_INITIALPOS*d06f7900
#INSPVAA,COM1,0,78.5,UNKNOWN,0,1427.000,004c0000,54e2,13306;0,1427.000000000,0.00000000000,0.00000000000,0.0000,0.0000,0.0000,0.0000,0.000000000,0.000000000,0.000000000,WAITING_INITIALPOS*d2179147
#INSPVAA,COM1,0,79.5,UNKNOWN,0,1427.500,004c0000,54e2,13306;0,1427.500000000,0.00000000000,0.00000000000,0.0000,0.0000,0.0000,0.0000,0.000000000,0.000000000,0.000000000,WAITING_INITIALPOS*81687679
#INSPVAA,COM1,0,79.5,UNKNOWN,0,1428.000,004c0000,54e2,13306;0,1428.000000000,0.00000000000,0.00000000000,0.0000,0.0000,0.0000,0.0000,0.000000000,0.000000000,0.000000000,WAITING_INITIALPOS*e0973851
#INSPVAA,COM1,0,81.5,UNKNOWN,0,1428.500,004c0000,54e2,13306;0,1428.500000000,0.00000000000,0.00000000000,0.0000,0.0000,0.0000,0.0000,0.000000000,0.000000000,0.000000000,WAITING_INITIALPOS*92149111
#INSPVAA,COM1,0,78.5,UNKNOWN,0,1429.000,004c0000,54e2,13306;0,1429.000000000,0.00000000000,0.00000000000,0.0000,0.0000,0.0000,0.0000,0.000000000,0.000000000,0.000000000,WAITING_INITIALPOS*b1903728
#INSPVAA,COM1,0,78.5,UNKNOWN,0,1429.500,004c0000,54e2,13306;0,1429.500000000,0.00000000000,0.00000000000,0.0000,0.0000,0.0000,0.0000,0.000000000,0.000000000,0.000000000,WAITING_INITIALPOS*9a4dc2de
#INSPVAA,COM1,0,70.5,UNKNOWN,0,1430.000,004c0000,54e2,13306;0,1430.000000000,0.00000000000,0.00000000000,0.0000,0.0000,0.0000,0.0000,0.000000000,0.000000000,0.000000000,WAITING_INITIALPOS*c1d17d95
#INSPVAA,COM1,0,70.5,UNKNOWN,0,1430.500,004c0000,54e2,13306;0,1430.500000000,0.00000000000,0.00000000000,0.0000,0.0000,0.0000,0.0000,0.000000000,0.000000000,0.000000000,WAITING_INITIALPOS*ea0c8863
#INSPVAA,COM1,0,70.5,UNKNOWN,0,1431.000,004c0000,54e2,13306;0,1431.000000000,0.00000000000,0.00000000000,0.0000,0.0000,0.0000,0.0000,0.000000000,0.000000000,0.000000000,WAITING_INITIALPOS*e8746024
#INSPVAA,COM1,0,72.5,UNKNOWN,0,1431.500,004c0000,54e2,13306;0,1431.500000000,0.00000000000,0.00000000000,0.0000,0.0000,0.0000,0.0000,0.000000000,0.000000000,0.000000000,WAITING_INITIALPOS*32edb042
#INSPVAA,COM1,0,68.5,UNKNOWN,0,1432.000,004c0000,54e2,13306;0,1432.000000000,0.00000000000,0.00000000000,0.0000,0.0000,0.0000,0.0000,0.000000000,0.000000000,0.000000000,WAITING_INITIALPOS*74ae34a5
#INSPVAA,COM1,0,68.5,UNKNOWN,0,1432.500,004c0000,54e2,13306;0,1432.500000000,0.00000000000,0.00000000000,0.0000,0.0000,0.0000,0.0000,0.000000000,0.000000000,0.000000000,WAITING_INITIALPOS*5f73c153
#INSPVAA,COM1,0,68.5,UNKNOWN,0,1433.000,004c0000,54e2,13306;0,1433.000000000,0.00000000000,0.00000000000,0.0000,0.0000,0.0000,0.0000,0.000000000,0.000000000,0.000000000,WAITING_INITIALPOS*5d0b2914
#INSPVAA,COM1,0,75.0,UNKNOWN,0,1433.500,004c0000,54e2,13306;0,1433.500000000,0.00000000000,0.00000000000,0.0000,0.0000,0.0000,0.0000,0.000000000,0.000000000,0.000000000,WAITING_INITIALPOS*f1f95220
#INSPVAA,COM1,0,70.0,UNKNOWN,0,1434.000,004c0000,54e2,13306;0,1434.000000000,0.00000000000,0.00000000000,0.0000,0.0000,0.0000,0.0000,0.000000000,0.000000000,0.000000000,WAITING_INITIALPOS*4704a868
#INSPVAA,COM1,0,70.0,UNKNOWN,0,1434.500,004c0000,54e2,13306;0,1434.500000000,0.00000000000,0.00000000000,0.0000,0.0000,0.0000,0.0000,0.000000000,0.000000000,0.000000000,WAITING_INITIALPOS*6cd95d9e
#INSPVAA,COM1,0,70.0,UNKNOWN,0,1435.000,004c0000,54e2,13306;0,1435.000000000,0.00000000000,0.00000000000,0.0000,0.0000,0.0000,0.0000,0.000000000,0.000000000,0.000000000,WAITING_INITIALPOS*6ea1b5d9
#INSPVAA,COM1,0,76.0,UNKNOWN,0,1435.500,004c0000,54e2,13306;0,1435.500000000,0.00000000000,0.00000000000,0.0000,0.0000,0.0000,0.0000,0.000000000,0.000000000,0.000000000,WAITING_INITIALPOS*8dc128de
#INSPVAA,COM1,0,76.0,UNKNOWN,0,1436.000,004c0000,54e2,13306;0,1436.000000000,0.00000000000,0.00000000000,0.0000,0.0000,0.0000,0.0000,0.000000000,0.000000000,0.000000000,WAITING_INITIALPOS*dcf3fbfb
#INSPVAA,COM1,0,78.0,UNKNOWN,0,1436.500,004c0000,54e2,13306;0,1436.500000000,0.00000000000,0.00000000000,0.0000,0.0000,0.0000,0.0000,0.000000000,0.000000000,0.000000000,WAITING_INITIALPOS*4c61fc3e
#INSPVAA,COM1,0,75.0,UNKNOWN,0,1437.000,004c0000,54e2,13306;0,1437.000000000,0.00000000000,0.00000000000,0.0000,0.0000,0.0000,0.0000,0.000000000,0.000000000,0.000000000,WAITING_INITIALPOS*7cb0d112
#INSPVAA,COM1,0,75.0,UNKNOWN,0,1437.500,004c0000,54e2,13306;0,1437.500000000,0.00000000000,0.00000000000,0.0000,0.0000,0.0000,0.0000,0.000000000,0.000000000,0.000000000,WAITING_INITIALPOS*576d24e4
#INSPVAA,COM1,0,75.0,UNKNOWN,0,1438.000,004c0000,54e2,13306;0,1438.000000000,0.00000000000,0.00000000000,0.0000,0.0000,0.0000,0.0000,0.000000000,0.000000000,0.000000000,WAITING_INITIALPOS*36926acc
#INSPVAA,COM1,0,75.5,UNKNOWN,0,1438.500,004c0000,54e2,13306;0,1438.500000000,0.00000000000,0.00000000000,0.0000,0.0000,0.0000,0.0000,0.000000000,0.000000000,0.000000000,WAITING_INITIALPOS*3d0e3c03
#INSPVAA,COM1,0,75.5,UNKNOWN,0,1439.000,004c0000,54e2,13306;0,1439.000000000,0.00000000000,0.00000000000,0.0000,0.0000,0.0000,0.0000,0.000000000,0.000000000,0.000000000,WAITING_INITIALPOS*3f76d444
#INSPVAA,COM1,0,76.5,UNKNOWN,0,1439.500,004c0000,54e2,13306;0,1439.500000000,0.00000000000,0.00000000000,0.0000,0.0000,0.0000,0.0000,0.000000000,0.000000000,0.000000000,WAITING_INITIALPOS*9d4d16ea
#INSPVAA,COM1,0,60.0,UNKNOWN,0,1440.000,004c0000,54e2,13306;0,1440.000000000,0.00000000000,0.00000000000,0.0000,0.0000,0.0000,0.0000,0.000000000,0.000000000,0.000000000,WAITING_INITIALPOS*f758c8ab
#INSPVAA,COM1,0,60.0,UNKNOWN,0,1440.500,004c0000,54e2,13306;0,1440.500000000,0.00000000000,0.00000000000,0.0000,0.0000,0.0000,0.0000,0.000000000,0.000000000,0.000000000,WAITING_INITIALPOS*dc853d5d
#INSPVAA,COM1,0,60.0,UNKNOWN,0,1441.000,004c0000,54e2,13306;0,1441.000000000,0.00000000000,0.00000000000,0.0000,0.0000,0.0000,0.0000,0.000000000,0.000000000,0.000000000,WAITING_INITIALPOS*defdd51a
#INSPVAA,COM1,0,78.0,UNKNOWN,0,1441.500,004c0000,54e2,13306;0,1441.500000000,0.00000000000,0.00000000000,0.0000,0.0000,0.0000,0.0000,0.000000000,0.000000000,0.000000000,WAITING_INITIALPOS*131552be
#INSPVAA,COM1,0,69.5,UNKNOWN,0,1442.000,004c0000,54e2,13306;0,1442.000000000,0.00000000000,0.00000000000,0.0000,0.0000,0.0000,0.0000,0.000000000,0.000000000,0.000000000,WAITING_INITIALPOS*8f03d8fa
#INSPVAA,COM1,0,69.5,UNKNOWN,0,1442.500,004c0000,54e2,13306;0,1442.500000000,0.00000000000,0.00000000000,0.0000,0.0000,0.0000,0.0000,0.000000000,0.000000000,0.000000000,WAITING_INITIALPOS*a4de2d0c
#INSPVAA,COM1,0,55.5,UNKNOWN,0,1443.000,004c0000,54e2,13306;0,1443.000000000,0.00000000000,0.00000000000,0.0000,0.0000,0.0000,0.0000,0.000000000,0.000000000,0.000000000,WAITING_INITIALPOS*89942d19
#INSPVAA,COM1,0,55.5,UNKNOWN,0,1443.500,004c0000,54e2,13306;0,1443.500000000,0.00000000000,0.00000000000,0.0000,0.0000,0.0000,0.0000,0.000000000,0.000000000,0.000000000,WAITING_INITIALPOS*a249d8ef
#INSPVAA,COM1,0,55.5,UNKNOWN,0,1444.000,004c0000,54e2,13306;0,1444.000000000,0.00000000000,0.00000000000,0.0000,0.0000,0.0000,0.0000,0.000000000,0.000000000,0.000000000,WAITING_INITIALPOS*55ef7d0e
#INSPVAA,COM1,0,62.0,UNKNOWN,0,1444.500,004c0000,54e2,13306;0,1444.500000000,0.00000000000,0.00000000000,0.0000,0.0000,0.0000,0.0000,0.000000000,0.000000000,0.000000000,WAITING_INITIALPOS*8b556e09
#INSPVAA,COM1,0,45.0,UNKNOWN,0,1445.000,004c0000,54e2,13306;0,1445.000000000,0.00000000000,0.00000000000,0.0000,0.0000,0.0000,0.0000,0.000000000,0.000000000,0.000000000,WAITING_INITIALPOS*c9cc2b16
#INSPVAA,COM1,0,45.0,UNKNOWN,0,1445.500,004c0000,54e2,13306;0,1445.500000000,0.00000000000,0.00000000000,0.0000,0.0000,0.0000,0.0000,0.000000000,0.000000000,0.000000000,WAITING_INITIALPOS*e211dee0
#INSPVAA,COM1,0,45.0,UNKNOWN,0,1446.000,004c0000,54e2,13306;0,1446.000000000,0.00000000000,0.00000000000,0.0000,0.0000,0.0000,0.0000,0.000000000,0.000000000,0.000000000,WAITING_INITIALPOS*b3230dc5
#INSPVAA,COM1,0,56.0,UNKNOWN,0,1446.500,004c0000,54e2,13306;0,1446.500000000,0.00000000000,0.00000000000,0.0000,0.0000,0.0000,0.0000,0.000000000,0.000000000,0.000000000,WAITING_INITIALPOS*84df27fb
#INSPVAA,COM1,0,56.0,UNKNOWN,0,1447.000,004c0000,54e2,13306;0,1447.000000000,0.00000000000,0.00000000000,0.0000,0.0000,0.0000,0.0000,0.000000000,0.000000000,0.000000000,WAITING_INITIALPOS*86a7cfbc
#INSPVAA,COM1,0,61.0,UNKNOWN,0,1447.500,004c0000,54e2,13306;0,1447.500000000,0.00000000000,0.00000000000,0.0000,0.0000,0.0000,0.0000,0.000000000,0.000000000,0.000000000,WAITING_INITIALPOS*785c7f82
#INSPVAA,COM1,0,54.5,UNKNOWN,0,1448.000,004c0000,54e2,13306;0,1448.000000000,0.00000000000,0.00000000000,0.0000,0.0000,0.0000,0.0000,0.000000000,0.000000000,0.000000000,WAITING_INITIALPOS*1d80f2cb
#INSPVAA,COM1,0,54.5,UNKNOWN,0,1448.500,004c0000,54e2,13306;0,1448.500000000,0.00000000000,0.00000000000,0.0000,0.0000,0.0000,0.0000,0.000000000,0.000000000,0.000000000,WAITING_INITIALPOS*365d073d
#INSPVAA,COM1,0,54.5,UNKNOWN,0,1449.000,004c0000,54e2,13306;0,1449.000000000,0.00000000000,0.00000000000,0.0000,0.0000,0.0000,0.0000,0.000000000,0.000000000,0.000000000,WAITING_INITIALPOS*3425ef7a
#INSPVAA,COM1,0,66.5,UNKNOWN,0,1449.500,004c0000,54e2,13306;0,1449.500000000,0.00000000000,0.00000000000,0.0000,0.0000,0.0000,0.0000,0.000000000,0.000000000,0.000000000,WAITING_INITIALPOS*8b8500ed
#INSPVAA,COM1,0,58.0,UNKNOWN,0,1450.000,004c0000,54e2,13306;0,1450.000000000,0.00000000000,0.00000000000,0.0000,0.0000,0.0000,0.0000,0.000000000,0.000000000,0.000000000,WAITING_INITIALPOS*5ddc4b9f
#INSPVAA,COM1,0,58.0,UNKNOWN,0,1450.500,004c0000,54e2,13306;0,1450.500000000,0.00000000000,0.00000000000,0.0000,0.0000,0.0000,0.0000,0.000000000,0.000000000,0.000000000,WAITING_INITIALPOS*7601be69
#INSPVAA,COM1,0,58.0,UNKNOWN,0,1451.000,004c0000,54e2,13306;0,1451.000000000,0.00000000000,0.00000000000,0.0000,0.0000,0.0000,0.0000,0.000000000,0.000000000,0.000000000,WAITING_INITIALPOS*7479562e
#INSPVAA,COM1,0,72.5,UNKNOWN,0,1451.500,004c0000,54e2,13306;0,1451.500000000,0.00000000000,0.00000000000,0.0000,0.0000,0.0000,0.0000,0.000000000,0.000000000,0.000000000,WAITING_INITIALPOS*0dad68d2
#INSPVAA,COM1,0,72.5,UNKNOWN,0,1452.000,004c0000,54e2,13306;0,1452.000000000,0.00000000000,0.00000000000,0.0000,0.0000,0.0000,0.0000,0.000000000,0.000000000,0.000000000,WAITING_INITIALPOS*5c9fbbf7
#INSPVAA,COM1,0,77.0,UNKNOWN,0,1452.500,004c0000,54e2,13306;0,1452.500000000,0.00000000000,0.00000000000,0.0000,0.0000,0.0000,0.0000,0.000000000,0.000000000,0.000000000,WAITING_INITIALPOS*1658b291
#INSPVAA,COM1,0,75.5,UNKNOWN,0,1453.000,004c0000,54e2,13306;0,1453.000000000,0.00000000000,0.00000000000,0.0000,0.0000,0.0000,0.0000,0.000000000,0.000000000,0.000000000,WAITING_INITIALPOS*c525dc7f
#INSPVAA,COM1,0,75.5,UNKNOWN,0,1453.500,004c0000,54e2,13306;0,1453.500000000,0.00000000000,0.00000000000,0.0000,0.0000,0.0000,0.0000,0.000000000,0.000000000,0.000000000,WAITING_INITIALPOS*eef82989
#INSPVAA,COM1,0,75.5,UNKNOWN,0,1454.000,004c0000,54e2,13306;0,1454.000000000,0.00000000000,0.00000000000,0.0000,0.0000,0.0000,0.0000,0.000000000,0.000000000,0.000000000,WAITING_INITIALPOS*195e8c68
#INSPVAA,COM1,0,77.0,UNKNOWN,0,1454.500,004c0000,54e2,13306;0,1454.500000000,0.00000000000,0.00000000000,0.0000,0.0000,0.0000,0.0000,0.000000000,0.000000000,0.000000000,WAITING_INITIALPOS*e386ff37
#INSPVAA,COM1,0,68.5,UNKNOWN,0,1455.000,004c0000,54e2,13306;0,1455.000000000,0.00000000000,0.00000000000,0.0000,0.0000,0.0000,0.0000,0.000000000,0.000000000,0.000000000,WAITING_INITIALPOS*9795bc22
#INSPVAA,COM1,0,68.5,UNKNOWN,0,1455.500,004c0000,54e2,13306;0,1455.500000000,0.00000000000,0.00000000000,0.0000,0.0000,0.0000,0.0000,0.000000000,0.000000000,0.000000000,WAITING_INITIALPOS*bc4849d4
#INSPVAA,COM1,0,68.5,UNKNOWN,0,1456.000,004c0000,54e2,13306;0,1456.000000000,0.00000000000,0.00000000000,0.0000,0.0000,0.0000,0.0000,0.000000000,0.000000000,0.000000000,WAITING_INITIALPOS*ed7a9af1
#INSPVAA,COM1,0,72.5,UNKNOWN,0,1456.500,004c0000,54e2,13306;0,1456.500000000,0.00000000000,0.00000000000,0.0000,0.0000,0.0000,0.0000,0.000000000,0.000000000,0.000000000,WAITING_INITIALPOS*d1d638c5
#INSPVAA,COM1,0,69.5,UNKNOWN,0,1457.000,004c0000,54e2,13306;0,1457.000000000,0.00000000000,0.00000000000,0.0000,0.0000,0.0000,0.0000,0.000000000,0.000000000,0.000000000,WAITING_INITIALPOS*bc7d9588
#INSPVAA,COM1,0,69.5,UNKNOWN,0,1457.500,004c0000,54e2,13306;0,1457.500000000,0.00000000000,0.00000000000,0.0000,0.0000,0.0000,0.0000,0.000000000,0.000000000,0.000000000,WAITING_INITIALPOS*97a0607e
#INSPVAA,COM1,0,56.5,UNKNOWN,0,1458.000,004c0000,54e2,13306;0,1458.000000000,0.00000000000,0.00000000000,0.0000,0.0000,0.0000,0.0000,0.000000000,0.000000000,0.000000000,WAITING_INITIALPOS*508bf15c
#INSPVAA,COM1,0,56.5,UNKNOWN,0,1458.500,004c0000,54e2,13306;0,1458.500000000,0.00000000000,0.00000000000,0.0000,0.0000,0.0000,0.0000,0.000000000,0.000000000,0.000000000,WAITING_INITIALPOS*7b5604aa
#INSPVAA,COM1,0,56.5,UNKNOWN,0,1459.000,004c0000,54e2,13306;0,1459.000000000,0.00000000000,0.00000000000,0.0000,0.0000,0.0000,0.0000,0.000000000,0.000000000,0.000000000,WAITING_INITIALPOS*792eeced
#INSPVAA,COM1,0,66.0,UNKNOWN,0,1459.500,004c0000,54e2,13306;0,1459.500000000,0.00000000000,0.00000000000,0.0000,0.0000,0.0000,0.0000,0.000000000,0.000000000,0.000000000,WAITING_INITIALPOS*178b85d3
#INSPVAA,COM1,0,66.0,UNKNOWN,0,1460.000,004c0000,54e2,13306;0,1460.000000000,0.00000000000,0.00000000000,0.0000,0.0000,0.0000,0.0000,0.000000000,0.000000000,0.000000000,WAITING_INITIALPOS*9c0aea15
#INSPVAA,COM1,0,70.0,UNKNOWN,0,1460.500,004c0000,54e2,13306;0,1460.500000000,0.00000000000,0.00000000000,0.0000,0.0000,0.0000,0.0000,0.000000000,0.000000000,0.000000000,WAITING_INITIALPOS*eaad9f82
#INSPVAA,COM1,0,70.0,UNKNOWN,0,1461.000,004c0000,54e2,13306;0,1461.000000000,0.00000000000,0.00000000000,0.0000,0.0000,0.0000,0.0000,0.000000000,0.000000000,0.000000000,WAITING_INITIALPOS*e8d577c5
#INSPVAA,COM1,0,77.0,UNKNOWN,0,1461.500,004c0000,54e2,13306;0,1461.500000000,0.00000000000,0.00000000000,0.0000,0.0000,0.0000,0.0000,0.000000000,0.000000000,0.000000000,WAITING_INITIALPOS*7317f80a
#INSPVAA,COM1,0,76.0,UNKNOWN,0,1462.000,004c0000,54e2,13306;0,1462.000000000,0.00000000000,0.00000000000,0.0000,0.0000,0.0000,0.0000,0.000000000,0.000000000,0.000000000,WAITING_INITIALPOS*5a8739e7
#INSPVAA,COM1,0,76.0,UNKNOWN,0,1462.500,004c0000,54e2,13306;0,1462.500000000,0.00000000000,0.00000000000,0.0000,0.0000,0.0000,0.0000,0.000000000,0.000000000,0.000000000,WAITING_INITIALPOS*715acc11
#INSPVAA,COM1,0,76.0,UNKNOWN,0,1463.000,004c0000,54e2,13306;0,1463.000000000,0.00000000000,0.00000000000,0.0000,0.0000,0.0000,0.0000,0.000000000,0.000000000,0.000000000,WAITING_INITIALPOS*73222456
#INSPVAA,COM1,0,76.0,UNKNOWN,0,1463.500,004c0000,54e2,13306;0,1463.500000000,0.00000000000,0.00000000000,0.0000,0.0000,0.0000,0.0000,0.000000000,0.000000000,0.000000000,WAITING_INITIALPOS*58ffd1a0
#INSPVAA,COM1,0,76.0,UNKNOWN,0,1464.000,004c0000,54e2,13306;0,1464.000000000,0.00000000000,0.00000000000,0.0000,0.0000,0.0000,0.0000,0.000000000,0.000000000,0.000000000,WAITING_INITIALPOS*af597441
#INSPVAA,COM1,0,77.5,UNKNOWN,0,1464.500,004c0000,54e2,13306;0,1464.500000000,0.00000000000,0.00000000000,0.0000,0.0000,0.0000,0.0000,0.000000000,0.000000000,0.000000000,WAITING_INITIALPOS*dc673046
#INSPVAA,COM1,0,77.0,UNKNOWN,0,1465.000,004c0000,54e2,13306;0,1465.000000000,0.00000000000,0.00000000000,0.0000,0.0000,0.0000,0.0000,0.000000000,0.000000000,0.000000000,WAITING_INITIALPOS*fe5e7b38
#INSPVAA,COM1,0,77.0,UNKNOWN,0,1465.500,004c0000,54e2,13306;0,1465.500000000,0.00000000000,0.00000000000,0.0000,0.0000,0.0000,0.0000,0.000000000,0.000000000,0.000000000,WAITING_INITIALPOS*d5838ece
#INSPVAA,COM1,0,77.0,UNKNOWN,0,1466.000,004c0000,54e2,13306;0,1466.000000000,0.00000000000,0.00000000000,0.0000,0.0000,0.0000,0.0000,0.000000000,0.000000000,0.000000000,WAITING_INITIALPOS*84b15deb
#INSPVAA,COM1,0,79.0,UNKNOWN,0,1466.500,004c0000,54e2,13306;0,1466.500000000,0.00000000000,0.00000000000,0.0000,0.0000,0.0000,0.0000,0.000000000,0.000000000,0.000000000,WAITING_INITIALPOS*14235a2e
#INSPVAA,COM1,0,79.0,UNKNOWN,0,1467.000,004c0000,54e2,13306;0,1467.000000000,0.00000000000,0.00000000000,0.0000,0.0000,0.0000,0.0000,0.000000000,0.000000000,0.000000000,WAITING_INITIALPOS*165bb269
#INSPVAA,COM1,0,79.5,UNKNOWN,0,1467.500,004c0000,54e2,13306;0,1467.500000000,0.00000000000,0.00000000000,0.0000,0.0000,0.0000,0.0000,0.000000000,0.000000000,0.000000000,WAITING_INITIALPOS*1dc7e4a6
#INSPVAA,COM1,0,79.5,UNKNOWN,0,1468.000,004c0000,54e2,13306;0,1468.000000000,0.00000000000,0.00000000000,0.0000,0.0000,0.0000,0.0000,0.000000000,0.000000000,0.000000000,WAITING_INITIALPOS*7c38aa8e
#INSPVAA,COM1,0,82.0,UNKNOWN,0,1468.500,004c0000,54e2,13306;0,1468.500000000,0.00000000000,0.00000000000,0.0000,0.0000,0.0000,0.0000,0.000000000,0.000000000,0.000000000,WAITING_INITIALPOS*a71c97af
#INSPVAA,COM1,0,80.0,UNKNOWN,0,1469.000,004c0000,54e2,13306;0,1469.000000000,0.00000000000,0.00000000000,0.0000,0.0000,0.0000,0.0000,0.000000000,0.000000000,0.000000000,WAITING_INITIALPOS*54205a78
#INSPVAA,COM1,0,80.0,UNKNOWN,0,1469.500,004c0000,54e2,13306;0,1469.500000000,0.00000000000,0.00000000000,0.0000,0.0000,0.0000,0.0000,0.000000000,0.000000000,0.000000000,WAITING_INITIALPOS*7ffdaf8e
#INSPVAA,COM1,0,68.5,UNKNOWN,0,1470.000,004c0000,54e2,13306;0,1470.000000000,0.00000000000,0.00000000000,0.0000,0.0000,0.0000,0.0000,0.000000000,0.000000000,0.000000000,WAITING_INITIALPOS*bb4b9d18
#INSPVAA,COM1,0,68.5,UNKNOWN,0,1470.500,004c0000,54e2,13306;0,1470.500000000,0.00000000000,0.00000000000,0.0000,0.0000,0.0000,0.0000,0.000000000,0.000000000,0.000000000,WAITING_INITIALPOS*909668ee
#INSPVAA,COM1,0,68.5,UNKNOWN,0,1471.000,004c0000,54e2,13306;0,1471.000000000,0.00000000000,0.00000000000,0.0000,0.0000,0.0000,0.0000,0.000000000,0.000000000,0.000000000,WAITING_INITIALPOS*92ee80a9
#INSPVAA,COM1,0,74.0,UNKNOWN,0,1471.500,004c0000,54e2,13306;0,1471.500000000,0.00000000000,0.00000000000,0.0000,0.0000,0.0000,0.0000,0.000000000,0.000000000,0.000000000,WAITING_INITIALPOS*46bee955
#INSPVAA,COM1,0,65.5,UNKNOWN,0,1472.000,004c0000,54e2,13306;0,1472.000000000,0.00000000000,0.00000000000,0.0000,0.0000,0.0000,0.0000,0.000000000,0.000000000,0.000000000,WAITING_INITIALPOS*daa86311
#INSPVAA,COM1,0,65.5,UNKNOWN,0,1472.500,004c0000,54e2,13306;0,1472.500000000,0.00000000000,0.00000000000,0.0000,0.0000,0.0000,0.0000,0.000000000,0.000000000,0.000000000,WAITING_INITIALPOS*f17596e7
#INSPVAA,COM1,0,65.5,UNKNOWN,0,1473.000,004c0000,54e2,13306;0,1473.000000000,0.00000000000,0.00000000000,0.0000,0.0000,0.0000,0.0000,0.000000000,0.000000000,0.000000000,WAITING_INITIALPOS*f30d7ea0
#INSPVAA,COM1,0,78.5,UNKNOWN,0,1473.500,004c0000,54e2,13306;0,1473.500000000,0.00000000000,0.00000000000,0.0000,0.0000,0.0000,0.0000,0.000000000,0.000000000,0.000000000,WAITING_INITIALPOS*7fbea6ad
#INSPVAA,COM1,0,78.5,UNKNOWN,0,1474.000,004c0000,54e2,13306;0,1474.000000000,0.00000000000,0.00000000000,0.0000,0.0000,0.0000,0.0000,0.000000000,0.000000000,0.000000000,WAITING_INITIALPOS*8818034c
#INSPVAA,COM1,0,81.0,UNKNOWN,0,1474.500,004c0000,54e2,13306;0,1474.500000000,0.00000000000,0.00000000000,0.0000,0.0000,0.0000,0.0000,0.000000000,0.000000000,0.000000000,WAITING_INITIALPOS*a2781bfd
#INSPVAA,COM1,0,81.0,UNKNOWN,0,1475.000,004c0000,54e2,13306;0,1475.000000000,0.00000000000,0.00000000000,0.0000,0.0000,0.0000,0.0000,0.000000000,0.000000000,0.000000000,WAITING_INITIALPOS*a000f3ba
#INSPVAA,COM1,0,81.5,UNKNOWN,0,1475.500,004c0000,54e2,13306;0,1475.500000000,0.00000000000,0.00000000000,0.0000,0.0000,0.0000,0.0000,0.000000000,0.000000000,0.000000000,WAITING_INITIALPOS*ab9ca575
#INSPVAA,COM1,0,73.0,UNKNOWN,0,1476.000,004c0000,54e2,13306;0,1476.000000000,0.00000000000,0.00000000000,0.0000,0.0000,0.0000,0.0000,0.000000000,0.000000000,0.000000000,WAITING_INITIALPOS*0107368d
#INSPVAA,COM1,0,73.0,UNKNOWN,0,1476.500,004c0000,54e2,13306;0,1476.500000000,0.00000000000,0.00000000000,0.0000,0.0000,0.0000,0.0000,0.000000000,0.000000000,0.000000000,WAITING_INITIALPOS*2adac37b
#INSPVAA,COM1,0,72.5,UNKNOWN,0,1477.000,004c0000,54e2,13306;0,1477.000000000,0.00000000000,0.00000000000,0.0000,0.0000,0.0000,0.0000,0.000000000,0.000000000,0.000000000,WAITING_INITIALPOS*70419acd
#INSPVAA,COM1,0,72.5,UNKNOWN,0,1477.500,004c0000,54e2,13306;0,1477.500000000,0.00000000000,0.00000000000,0.0000,0.0000,0.0000,0.0000,0.000000000,0.000000000,0.000000000,WAITING_INITIALPOS*5b9c6f3b
#INSPVAA,COM1,0,68.0,UNKNOWN,0,1478.000,004c0000,54e2,13306;0,1478.000000000,0.00000000000,0.00000000000,0.0000,0.0000,0.0000,0.0000,0.000000000,0.000000000,0.000000000,WAITING_INITIALPOS*0d53d5e8
#INSPVAA,COM1,0,68.0,UNKNOWN,0,1478.500,004c0000,54e2,13306;0,1478.500000000,0.00000000000,0.00000000000,0.0000,0.0000,0.0000,0.0000,0.000000000,0.000000000,0.000000000,WAITING_INITIALPOS*268e201e
#INSPVAA,COM1,0,68.0,UNKNOWN,0,1479.000,004c0000,54e2,13306;0,1479.000000000,0.00000000000,0.00000000000,0.0000,0.0000,0.0000,0.0000,0.000000000,0.000000000,0.000000000,WAITING_INITIALPOS*24f6c859
#INSPVAA,COM1,0,45.5,UNKNOWN,0,1479.500,004c0000,54e2,13306;0,1479.500000000,0.00000000000,0.00000000000,0.0000,0.0000,0.0000,0.0000,0.000000000,0.000000000,0.000000000,WAITING_INITIALPOS*ed3d8c9c
#INSPVAA,COM1,0,45.5,UNKNOWN,0,1480.000,004c0000,54e2,13306;0,1480.000000000,0.00000000000,0.00000000000,0.0000,0.0000,0.0000,0.0000,0.000000000,0.000000000,0.000000000,WAITING_INITIALPOS*183d527a
#INSPVAA,COM1,0,45.5,UNKNOWN,0,1480.500,004c0000,54e2,13306;0,1480.500000000,0.00000000000,0.00000000000,0.0000,0.0000,0.0000,0.0000,0.000000000,0.000000000,0.000000000,WAITING_INITIALPOS*33e0a78c
#INSPVAA,COM1,0,73.5,UNKNOWN,0,1481.000,004c0000,54e2,13306;0,1481.000000000,0.00000000000,0.00000000000,0.0000,0.0000,0.0000,0.0000,0.000000000,0.000000000,0.000000000,WAITING_INITIALPOS*9c1c18cb
#INSPVAA,COM1,0,63.5,UNKNOWN,0,1481.500,004c0000,54e2,13306;0,1481.500000000,0.00000000000,0.00000000000,0.0000,0.0000,0.0000,0.0000,0.000000000,0.000000000,0.000000000,WAITING_INITIALPOS*220605ad
#INSPVAA,COM1,0,63.5,UNKNOWN,0,1482.000,004c0000,54e2,13306;0,1482.000000000,0.00000000000,0.00000000000,0.0000,0.0000,0.0000,0.0000,0.000000000,0.000000000,0.000000000,WAITING_INITIALPOS*7334d688
#INSPVAA,COM1,0,63.5,UNKNOWN,0,1482.500,004c0000,54e2,13306;0,1482.500000000,0.00000000000,0.00000000000,0.0000,0.0000,0.0000,0.0000,0.000000000,0.000000000,0.000000000,WAITING_INITIALPOS*58e9237e
#INSPVAA,COM1,0,70.0,UNKNOWN,0,1483.000,004c0000,54e2,13306;0,1483.000000000,0.00000000000,0.00000000000,0.0000,0.0000,0.0000,0.0000,0.000000000,0.000000000,0.000000000,WAITING_INITIALPOS*66f1b7c8
#INSPVAA,COM1,0,70.0,UNKNOWN,0,1483.500,004c0000,54e2,13306;0,1483.500000000,0.00000000000,0.00000000000,0.0000,0.0000,0.0000,0.0000,0.000000000,0.000000000,0.000000000,WAITING_INITIALPOS*4d2c423e
#INSPVAA,COM1,0,71.5,UNKNOWN,0,1484.000,004c0000,54e2,13306;0,1484.000000000,0.00000000000,0.00000000000,0.0000,0.0000,0.0000,0.0000,0.000000000,0.000000000,0.000000000,WAITING_INITIALPOS*e269562e
#INSPVAA,COM1,0,60.5,UNKNOWN,0,1484.500,004c0000,54e2,13306;0,1484.500000000,0.00000000000,0.00000000000,0.0000,0.0000,0.0000,0.0000,0.000000000,0.000000000,0.000000000,WAITING_INITIALPOS*24d15980
#INSPVAA,COM1,0,60.5,UNKNOWN,0,1485.000,004c0000,54e2,13306;0,1485.000000000,0.00000000000,0.00000000000,0.0000,0.0000,0.0000,0.0000,0.000000000,0.000000000,0.000000000,WAITING_INITIALPOS*26a9b1c7
#INSPVAA,COM1,0,60.5,UNKNOWN,0,1485.500,004c0000,54e2,13306;0,1485.500000000,0.00000000000,0.00000000000,0.0000,0.0000,0.0000,0.0000,0.000000000,0.000000000,0.000000000,WAITING_INITIALPOS*0d744431
#INSPVAA,COM1,0,77.0,UNKNOWN,0,1486.000,004c0000,54e2,13306;0,1486.000000000,0.00000000000,0.00000000000,0.0000,0.0000,0.0000,0.0000,0.000000000,0.000000000,0.000000000,WAITING_INITIALPOS*59dfa684
#INSPVAA,COM1,0,77.0,UNKNOWN,0,1486.500,004c0000,54e2,13306;0,1486.500000000,0.00000000000,0.00000000000,0.0000,0.0000,0.0000,0.0000,0.000000000,0.000000000,0.000000000,WAITING_INITIALPOS*72025372
#INSPVAA,COM1,0,79.0,UNKNOWN,0,1487.000,004c0000,54e2,13306;0,1487.000000000,0.00000000000,0.00000000000,0.0000,0.0000,0.0000,0.0000,0.000000000,0.000000000,0.000000000,WAITING_INITIALPOS*cb354906
#INSPVAA,COM1,0,77.5,UNKNOWN,0,1487.500,004c0000,54e2,13306;0,1487.500000000,0.00000000000,0.00000000000,0.0000,0.0000,0.0000,0.0000,0.000000000,0.000000000,0.000000000,WAITING_INITIALPOS*7be6edfa
#INSPVAA,COM1,0,77.5,UNKNOWN,0,1488.000,004c0000,54e2,13306;0,1488.000000000,0.00000000000,0.00000000000,0.0000,0.0000,0.0000,0.0000,0.000000000,0.000000000,0.000000000,WAITING_INITIALPOS*1a19a3d2
#INSPVAA,COM1,0,77.5,UNKNOWN,0,1488.500,004c0000,54e2,13306;0,1488.500000000,0.00000000000,0.00000000000,0.0000,0.0000,0.0000,0.0000,0.000000000,0.000000000,0.000000000,WAITING_INITIALPOS*31c45624
#INSPVAA,COM1,0,77.5,UNKNOWN,0,1489.000,004c0000,54e2,13306;0,1489.000000000,0.00000000000,0.00000000000,0.0000,0.0000,0.0000,0.0000,0.000000000,0.000000000,0.000000000,WAITING_INITIALPOS*33bcbe63
#INSPVAA,COM1,0,77.5,UNKNOWN,0,1489.500,004c0000,54e2,13306;0,1489.500000000,0.00000000000,0.00000000000,0.0000,0.0000,0.0000,0.0000,0.000000000,0.000000000,0.000000000,WAITING_INITIALPOS*18614b95
#INSPVAA,COM1,0,80.5,UNKNOWN,0,1490.000,004c0000,54e2,13306;0,1490.000000000,0.00000000000,0.00000000000,0.0000,0.0000,0.0000,0.0000,0.000000000,0.000000000,0.000000000,WAITING_INITIALPOS*aabcd251
#INSPVAA,COM1,0,73.0,UNKNOWN,0,1490.500,004c0000,54e2,13306;0,1490.500000000,0.00000000000,0.00000000000,0.0000,0.0000,0.0000,0.0000,0.000000000,0.000000000,0.000000000,WAITING_INITIALPOS*026a75b2
#INSPVAA,COM1,0,73.0,UNKNOWN,0,1491.000,004c0000,54e2,13306;0,1491.000000000,0.00000000000,0.00000000000,0.0000,0.0000,0.0000,0.0000,0.000000000,0.000000000,0.000000000,WAITING_INITIALPOS*00129df5
#INSPVAA,COM1,0,73.0,UNKNOWN,0,1491.500,004c0000,54e2,13306;0,1491.500000000,0.00000000000,0.00000000000,0.0000,0.0000,0.0000,0.0000,0.000000000,0.000000000,0.000000000,WAITING_INITIALPOS*2bcf6803
#INSPVAA,COM1,0,74.0,UNKNOWN,0,1492.000,004c0000,54e2,13306;0,1492.000000000,0.00000000000,0.00000000000,0.0000,0.0000,0.0000,0.0000,0.000000000,0.000000000,0.000000000,WAITING_INITIALPOS*cae2c11f
#INSPVAA,COM1,0,63.0,UNKNOWN,0,1492.500,004c0000,54e2,13306;0,1492.500000000,0.00000000000,0.00000000000,0.0000,0.0000,0.0000,0.0000,0.000000000,0.000000000,0.000000000,WAITING_INITIALPOS*c4e7a640
#INSPVAA,COM1,0,63.0,UNKNOWN,0,1493.000,004c0000,54e2,13306;0,1493.000000000,0.00000000000,0.00000000000,0.0000,0.0000,0.0000,0.0000,0.000000000,0.000000000,0.000000000,WAITING_INITIALPOS*c69f4e07
#INSPVAA,COM1,0,59.0,UNKNOWN,0,1493.500,004c0000,54e2,13306;0,1493.500000000,0.00000000000,0.00000000000,0.0000,0.0000,0.0000,0.0000,0.000000000,0.000000000,0.000000000,WAITING_INITIALPOS*0acd3b52
#INSPVAA,COM1,0,59.0,UNKNOWN,0,1494.000,004c0000,54e2,13306;0,1494.000000000,0.00000000000,0.00000000000,0.0000,0.0000,0.0000,0.0000,0.000000000,0.000000000,0.000000000,WAITING_INITIALPOS*fd6b9eb3
#INSPVAA,COM1,0,59.0,UNKNOWN,0,1494.500,004c0000,54e2,13306;0,1494.500000000,0.00000000000,0.00000000000,0.0000,0.0000,0.0000,0.0000,0.000000000,0.000000000,0.000000000,WAITING_INITIALPOS*d6b66b45
#INSPVAA,COM1,0,73.0,UNKNOWN,0,1495.000,004c0000,54e2,13306;0,1495.000000000,0.00000000000,0.00000000000,0.0000,0.0000,0.0000,0.0000,0.000000000,0.000000000,0.000000000,WAITING_INITIALPOS*a686eb31
#INSPVAA,COM1,0,73.0,UNKNOWN,0,1495.500,004c0000,54e2,13306;0,1495.500000000,0.00000000000,0.00000000000,0.0000,0.0000,0.0000,0.0000,0.000000000,0.000000000,0.000000000,WAITING_INITIALPOS*8d5b1ec7
#INSPVAA,COM1,0,80.5,UNKNOWN,0,1496.000,004c0000,54e2,13306;0,1496.000000000,0.00000000000,0.00000000000,0.0000,0.0000,0.0000,0.0000,0.000000000,0.000000000,0.000000000,WAITING_INITIALPOS*5f629ff7
#INSPVAA,COM1,0,70.0,UNKNOWN,0,1496.500,004c0000,54e2,13306;0,1496.500000000,0.00000000000,0.00000000000,0.0000,0.0000,0.0000,0.0000,0.000000000,0.000000000,0.000000000,WAITING_INITIALPOS*7e520f4c
#INSPVAA,COM1,0,70.0,UNKNOWN,0,1497.000,004c0000,54e2,13306;0,1497.000000000,0.00000000000,0.00000000000,0.0000,0.0000,0.0000,0.0000,0.000000000,0.000000000,0.000000000,WAITING_INITIALPOS*7c2ae70b
#INSPVAA,COM1,0,70.0,UNKNOWN,0,1497.500,004c0000,54e2,13306;0,1497.500000000,0.00000000000,0.00000000000,0.0000,0.0000,0.0000,0.0000,0.000000000,0.000000000,0.000000000,WAITING_INITIALPOS*57f712fd
#INSPVAA,COM1,0,75.5,UNKNOWN,0,1498.000,004c0000,54e2,13306;0,1498.000000000,0.00000000000,0.00000000000,0.0000,0.0000,0.0000,0.0000,0.000000000,0.000000000,0.000000000,WAITING_INITIALPOS*5712a045
#INSPVAA,COM1,0,67.0,UNKNOWN,0,1498.500,004c0000,54e2,13306;0,1498.500000000,0.00000000000,0.00000000000,0.0000,0.0000,0.0000,0.0000,0.000000000,0.000000000,0.000000000,WAITING_INITIALPOS*380d3b8a
#INSPVAA,COM1,0,67.0,UNKNOWN,0,1499.000,004c0000,54e2,13306;0,1499.000000000,0.00000000000,0.00000000000,0.0000,0.0000,0.0000,0.0000,0.000000000,0.000000000,0.000000000,WAITING_INITIALPOS*3a75d3cd
#INSPVAA,COM1,0,67.0,UNKNOWN,0,1499.500,004c0000,54e2,13306;0,1499.500000000,0.00000000000,0.00000000000,0.0000,0.0000,0.0000,0.0000,0.000000000,0.000000000,0.000000000,WAITING_INITIALPOS*11a8263b
#INSPVAA,COM1,0,77.5,UNKNOWN,0,1500.000,004c0000,54e2,13306;0,1500.000000000,0.00000000000,0.00000000000,0.0000,0.0000,0.0000,0.0000,0.000000000,0.000000000,0.000000000,WAITING_INITIALPOS*f0b6b161
#INSPVAA,COM1,0,67.5,UNKNOWN,0,1500.500,004c0000,54e2,13306;0,1500.500000000,0.00000000000,0.00000000000,0.0000,0.0000,0.0000,0.0000,0.000000000,0.000000000,0.000000000,WAITING_INITIALPOS*4eacac07
#INSPVAA,COM1,0,67.5,UNKNOWN,0,1501.000,004c0000,54e2,13306;0,1501.000000000,0.00000000000,0.00000000000,0.0000,0.0000,0.0000,0.0000,0.000000000,0.000000000,0.000000000,WAITING_INITIALPOS*4cd44440
#INSPVAA,COM1,0,67.5,UNKNOWN,0,1501.500,004c0000,54e2,13306;0,1501.500000000,0.00000000000,0.00000000000,0.0000,0.0000,0.0000,0.0000,0.000000000,0.000000000,0.000000000,WAITING_INITIALPOS*6709b1b6
#INSPVAA,COM1,0,73.5,UNKNOWN,0,1502.000,004c0000,54e2,13306;0,1502.000000000,0.00000000000,0.00000000000,0.0000,0.0000,0.0000,0.0000,0.000000000,0.000000000,0.000000000,WAITING_INITIALPOS*9a05c762
#INSPVAA,COM1,0,73.5,UNKNOWN,0,1502.500,004c0000,54e2,13306;0,1502.500000000,0.00000000000,0.00000000000,0.0000,0.0000,0.0000,0.0000,0.000000000,0.000000000,0.000000000,WAITING_INITIALPOS*b1d83294
#INSPVAA,COM1,0,80.0,UNKNOWN,0,1503.000,004c0000,54e2,13306;0,1503.000000000,0.00000000000,0.00000000000,0.0000,0.0000,0.0000,0.0000,0.000000000,0.000000000,0.000000000,WAITING_INITIALPOS*30ab88c6
#INSPVAA,COM1,0,78.0,UNKNOWN,0,1503.500,004c0000,54e2,13306;0,1503.500000000,0.00000000000,0.00000000000,0.0000,0.0000,0.0000,0.0000,0.000000000,0.000000000,0.000000000,WAITING_INITIALPOS*42282186
#INSPVAA,COM1,0,78.0,UNKNOWN,0,1504.000,004c0000,54e2,13306;0,1504.000000000,0.00000000000,0.00000000000,0.0000,0.0000,0.0000,0.0000,0.000000000,0.000000000,0.000000000,WAITING_INITIALPOS*b58e8467
#INSPVAA,COM1,0,74.5,UNKNOWN,0,1504.500,004c0000,54e2,13306;0,1504.500000000,0.00000000000,0.00000000000,0.0000,0.0000,0.0000,0.0000,0.000000000,0.000000000,0.000000000,WAITING_INITIALPOS*f419050b
#INSPVAA,COM1,0,74.5,UNKNOWN,0,1505.000,004c0000,54e2,13306;0,1505.000000000,0.00000000000,0.00000000000,0.0000,0.0000,0.0000,0.0000,0.000000000,0.000000000,0.000000000,WAITING_INITIALPOS*f661ed4c
#INSPVAA,COM1,0,74.5,UNKNOWN,0,1505.500,004c0000,54e2,13306;0,1505.500000000,0.00000000000,0.00000000000,0.0000,0.0000,0.0000,0.0000,0.000000000,0.000000000,0.000000000,WAITING_INITIALPOS*ddbc18ba
#INSPVAA,COM1,0,78.0,UNKNOWN,0,1506.000,004c0000,54e2,13306;0,1506.000000000,0.00000000000,0.00000000000,0.0000,0.0000,0.0000,0.0000,0.000000000,0.000000000,0.000000000,WAITING_INITIALPOS*e6c4bf05
#INSPVAA,COM1,0,78.0,UNKNOWN,0,1506.500,004c0000,54e2,13306;0,1506.500000000,0.00000000000,0.00000000000,0.0000,0.0000,0.0000,0.0000,0.000000000,0.000000000,0.000000000,WAITING_INITIALPOS*cd194af3
#INSPVAA,COM1,0,82.0,UNKNOWN,0,1507.000,004c0000,54e2,13306;0,1507.000000000,0.00000000000,0.00000000000,0.0000,0.0000,0.0000,0.0000,0.000000000,0.000000000,0.000000000,WAITING_INITIALPOS*677bdb92
#INSPVAA,COM1,0,79.5,UNKNOWN,0,1507.500,004c0000,54e2,13306;0,1507.500000000,0.00000000000,0.00000000000,0.0000,0.0000,0.0000,0.0000,0.000000000,0.000000000,0.000000000,WAITING_INITIALPOS*bc5fe6b3
#INSPVAA,COM1,0,79.5,UNKNOWN,0,1508.000,004c0000,54e2,13306;0,1508.000000000,0.00000000000,0.00000000000,0.0000,0.0000,0.0000,0.0000,0.000000000,0.000000000,0.000000000,WAITING_INITIALPOS*dda0a89b
#INSPVAA,COM1,0,70.5,UNKNOWN,0,1508.500,004c0000,54e2,13306;0,1508.500000000,0.00000000000,0.00000000000,0.0000,0.0000,0.0000,0.0000,0.000000000,0.000000000,0.000000000,WAITING_INITIALPOS*fd2dd567
#INSPVAA,COM1,0,70.5,UNKNOWN,0,1509.000,004c0000,54e2,13306;0,1509.000000000,0.00000000000,0.00000000000,0.0000,0.0000,0.0000,0.0000,0.000000000,0.000000000,0.000000000,WAITING_INITIALPOS*ff553d20
#INSPVAA,COM1,0,70.5,UNKNOWN,0,1509.500,004c0000,54e2,13306;0,1509.500000000,0.00000000000,0.00000000000,0.0000,0.0000,0.0000,0.0000,0.000000000,0.000000000,0.000000000,WAITING_INITIALPOS*d488c8d6
#INSPVAA,COM1,0,71.0,UNKNOWN,0,1510.000,004c0000,54e2,13306;0,1510.000000000,0.00000000000,0.00000000000,0.0000,0.0000,0.0000,0.0000,0.000000000,0.000000000,0.000000000,WAITING_INITIALPOS*a4055cae
#INSPVAA,COM1,0,71.0,UNKNOWN,0,1510.500,004c0000,54e2,13306;0,1510.500000000,0.00000000000,0.00000000000,0.0000,0.0000,0.0000,0.0000,0.000000000,0.000000000,0.000000000,WAITING_INITIALPOS*8fd8a958
#INSPVAA,COM1,0,79.0,UNKNOWN,0,1511.000,004c0000,54e2,13306;0,1511.000000000,0.00000000000,0.00000000000,0.0000,0.0000,0.0000,0.0000,0.000000000,0.000000000,0.000000000,WAITING_INITIALPOS*fe52dbdd
#INSPVAA,COM1,0,77.5,UNKNOWN,0,1511.500,004c0000,54e2,13306;0,1511.500000000,0.00000000000,0.00000000000,0.0000,0.0000,0.0000,0.0000,0.000000000,0.000000000,0.000000000,WAITING_INITIALPOS*4e817f21
#INSPVAA,COM1,0,77.5,UNKNOWN,0,1512.000,004c0000,54e2,13306;0,1512.000000000,0.00000000000,0.00000000000,0.0000,0.0000,0.0000,0.0000,0.000000000,0.000000000,0.000000000,WAITING_INITIALPOS*1fb3ac04
#INSPVAA,COM1,0,77.5,UNKNOWN,0,1512.500,004c0000,54e2,13306;0,1512.500000000,0.00000000000,0.00000000000,0.0000,0.0000,0.0000,0.0000,0.000000000,0.000000000,0.000000000,WAITING_INITIALPOS*346e59f2
#INSPVAA,COM1,0,81.0,UNKNOWN,0,1513.000,004c0000,54e2,13306;0,1513.000000000,0.00000000000,0.00000000000,0.0000,0.0000,0.0000,0.0000,0.000000000,0.000000000,0.000000000,WAITING_INITIALPOS*f446bc09
#INSPVAA,COM1,0,80.0,UNKNOWN,0,1513.500,004c0000,54e2,13306;0,1513.500000000,0.00000000000,0.00000000000,0.0000,0.0000,0.0000,0.0000,0.000000000,0.000000000,0.000000000,WAITING_INITIALPOS*a7395b37
#INSPVAA,COM1,0,80.0,UNKNOWN,0,1514.000,004c0000,54e2,13306;0,1514.000000000,0.00000000000,0.00000000000,0.0000,0.0000,0.0000,0.0000,0.000000000,0.000000000,0.000000000,WAITING_INITIALPOS*509ffed6
#INSPVAA,COM1,0,80.0,UNKNOWN,0,1514.500,004c0000,54e2,13306;0,1514.500000000,0.00000000000,0.00000000000,0.0000,0.0000,0.0000,0.0000,0.000000000,0.000000000,0.000000000,WAITING_INITIALPOS*7b420b20
#INSPVAA,COM1,0,80.0,UNKNOWN,0,1515.000,004c0000,54e2,13306;0,1515.000000000,0.00000000000,0.00000000000,0.0000,0.0000,0.0000,0.0000,0.000000000,0.000000000,0.000000000,WAITING_INITIALPOS*793ae367
#INSPVAA,COM1,0,78.5,UNKNOWN,0,1515.500,004c0000,54e2,13306;0,1515.500000000,0.00000000000,0.00000000000,0.0000,0.0000,0.0000,0.0000,0.000000000,0.000000000,0.000000000,WAITING_INITIALPOS*2bf8e91e
#INSPVAA,COM1,0,78.5,UNKNOWN,0,1516.000,004c0000,54e2,13306;0,1516.000000000,0.00000000000,0.00000000000,0.0000,0.0000,0.0000,0.0000,0.000000000,0.000000000,0.000000000,WAITING_INITIALPOS*7aca3a3b
#INSPVAA,COM1,0,78.5,UNKNOWN,0,1516.500,004c0000,54e2,13306;0,1516.500000000,0.00000000000,0.00000000000,0.0000,0.0000,0.0000,0.0000,0.000000000,0.000000000,0.000000000,WAITING_INITIALPOS*5117cfcd
#INSPVAA,COM1,0,80.5,UNKNOWN,0,1517.000,004c0000,54e2,13306;0,1517.000000000,0.00000000000,0.00000000000,0.0000,0.0000,0.0000,0.0000,0.000000000,0.000000000,0.000000000,WAITING_INITIALPOS*0a317b3c
#INSPVAA,COM1,0,80.5,UNKNOWN,0,1517.500,004c0000,54e2,13306;0,1517.500000000,0.00000000000,0.00000000000,0.0000,0.0000,0.0000,0.0000,0.000000000,0.000000000,0.000000000,WAITING_INITIALPOS*21ec8eca
#INSPVAA,COM1,0,80.5,UNKNOWN,0,1518.000,004c0000,54e2,13306;0,1518.000000000,0.00000000000,0.00000000000,0.0000,0.0000,0.0000,0.0000,0.000000000,0.000000000,0.000000000,WAITING_INITIALPOS*4013c0e2
#INSPVAA,COM1,0,80.5,UNKNOWN,0,1518.500,004c0000,54e2,13306;0,1518.500000000,0.00000000000,0.00000000000,0.0000,0.0000,0.0000,0.0000,0.000000000,0.000000000,0.000000000,WAITING_INITIALPOS*6bce3514
#INSPVAA,COM1,0,82.5,UNKNOWN,0,1519.000,004c0000,54e2,13306;0,1519.000000000,0.00000000000,0.00000000000,0.0000,0.0000,0.0000,0.0000,0.000000000,0.000000000,0.000000000,WAITING_INITIALPOS*98f2f8c3
#INSPVAA,COM1,0,81.0,UNKNOWN,0,1519.500,004c0000,54e2,13306;0,1519.500000000,0.00000000000,0.00000000000,0.0000,0.0000,0.0000,0.0000,0.000000000,0.000000000,0.000000000,WAITING_INITIALPOS*1a889954
#INSPVAA,COM1,0,81.0,UNKNOWN,0,1520.000,004c0000,54e2,13306;0,1520.000000000,0.00000000000,0.00000000000,0.0000,0.0000,0.0000,0.0000,0.000000000,0.000000000,0.000000000,WAITING_INITIALPOS*9109f692
#INSPVAA,COM1,0,74.0,UNKNOWN,0,1520.500,004c0000,54e2,13306;0,1520.500000000,0.00000000000,0.00000000000,0.0000,0.0000,0.0000,0.0000,0.000000000,0.000000000,0.000000000,WAITING_INITIALPOS*d1239ab9
#INSPVAA,COM1,0,74.0,UNKNOWN,0,1521.000,004c0000,54e2,13306;0,1521.000000000,0.00000000000,0.00000000000,0.0000,0.0000,0.0000,0.0000,0.000000000,0.000000000,0.000000000,WAITING_INITIALPOS*d35b72fe
#INSPVAA,COM1,0,74.0,UNKNOWN,0,1521.500,004c0000,54e2,13306;0,1521.500000000,0.00000000000,0.00000000000,0.0000,0.0000,0.0000,0.0000,0.000000000,0.000000000,0.000000000,WAITING_INITIALPOS*f8868708
#INSPVAA,COM1,0,79.0,UNKNOWN,0,1522.000,004c0000,54e2,13306;0,1522.000000000,0.00000000000,0.00000000000,0.0000,0.0000,0.0000,0.0000,0.000000000,0.000000000,0.000000000,WAITING_INITIALPOS*9b1d9146
#INSPVAA,COM1,0,79.0,UNKNOWN,0,1522.500,004c0000,54e2,13306;0,1522.500000000,0.00000000000,0.00000000000,0.0000,0.0000,0.0000,0.0000,0.000000000,0.000000000,0.000000000,WAITING_INITIALPOS*b0c064b0
#INSPVAA,COM1,0,81.5,UNKNOWN,0,1523.000,004c0000,54e2,13306;0,1523.000000000,0.00000000000,0.00000000000,0.0000,0.0000,0.0000,0.0000,0.000000000,0.000000000,0.000000000,WAITING_INITIALPOS*cba77378
#INSPVAA,COM1,0,77.5,UNKNOWN,0,1523.500,004c0000,54e2,13306;0,1523.500000000,0.00000000000,0.00000000000,0.0000,0.0000,0.0000,0.0000,0.000000000,0.000000000,0.000000000,WAITING_INITIALPOS*026b280b
#INSPVAA,COM1,0,77.5,UNKNOWN,0,1524.000,004c0000,54e2,13306;0,1524.000000000,0.00000000000,0.00000000000,0.0000,0.0000,0.0000,0.0000,0.000000000,0.000000000,0.000000000,WAITING_INITIALPOS*f5cd8dea
#INSPVAA,COM1,0,77.5,UNKNOWN,0,1524.500,004c0000,54e2,13306;0,1524.500000000,0.00000000000,0.00000000000,0.0000,0.0000,0.0000,0.0000,0.000000000,0.000000000,0.000000000,WAITING_INITIALPOS*de10781c
#INSPVAA,COM1,0,80.0,UNKNOWN,0,1525.000,004c0000,54e2,13306;0,1525.000000000,0.00000000000,0.00000000000,0.0000,0.0000,0.0000,0.0000,0.000000000,0.000000000,0.000000000,WAITING_INITIALPOS*669a8f2f
#INSPVAA,COM1,0,64.5,UNKNOWN,0,1525.500,004c0000,54e2,13306;0,1525.500000000,0.00000000000,0.00000000000,0.0000,0.0000,0.0000,0.0000,0.000000000,0.000000000,0.000000000,WAITING_INITIALPOS*eb94ba65
#INSPVAA,COM1,0,64.5,UNKNOWN,0,1526.000,004c0000,54e2,13306;0,1526.000000000,0.00000000000,0.00000000000,0.0000,0.0000,0.0000,0.0000,0.000000000,0.000000000,0.000000000,WAITING_INITIALPOS*baa66940
#INSPVAA,COM1,0,64.5,UNKNOWN,0,1526.500,004c0000,54e2,13306;0,1526.500000000,0.00000000000,0.00000000000,0.0000,0.0000,0.0000,0.0000,0.000000000,0.000000000,0.000000000,WAITING_INITIALPOS*917b9cb6
#INSPVAA,COM1,0,74.0,UNKNOWN,0,1527.000,004c0000,54e2,13306;0,1527.000000000,0.00000000000,0.00000000000,0.0000,0.0000,0.0000,0.0000,0.000000000,0.000000000,0.000000000,WAITING_INITIALPOS*26853f58
#INSPVAA,COM1,0,64.5,UNKNOWN,0,1527.500,004c0000,54e2,13306;0,1527.500000000,0.00000000000,0.00000000000,0.0000,0.0000,0.0000,0.0000,0.000000000,0.000000000,0.000000000,WAITING_INITIALPOS*b8de8107
#INSPVAA,COM1,0,64.5,UNKNOWN,0,1528.000,004c0000,54e2,13306;0,1528.000000000,0.00000000000,0.00000000000,0.0000,0.0000,0.0000,0.0000,0.000000000,0.000000000,0.000000000,WAITING_INITIALPOS*d921cf2f
#INSPVAA,COM1,0,64.5,UNKNOWN,0,1528.500,004c0000,54e2,13306;0,1528.500000000,0.00000000000,0.00000000000,0.0000,0.0000,0.0000,0.0000,0.000000000,0.000000000,0.000000000,WAITING_INITIALPOS*f2fc3ad9
#INSPVAA,COM1,0,73.0,UNKNOWN,0,1529.000,004c0000,54e2,13306;0,1529.000000000,0.00000000000,0.00000000000,0.0000,0.0000,0.0000,0.0000,0.000000000,0.000000000,0.000000000,WAITING_INITIALPOS*f51de30e
#INSPVAA,COM1,0,73.0,UNKNOWN,0,1529.500,004c0000,54e2,13306;0,1529.500000000,0.00000000000,0.00000000000,0.0000,0.0000,0.0000,0.0000,0.000000000,0.000000000,0.000000000,WAITING_INITIALPOS*dec016f8
#INSPVAA,COM1,0,79.0,UNKNOWN,0,1530.000,004c0000,54e2,13306;0,1530.000000000,0.00000000000,0.00000000000,0.0000,0.0000,0.0000,0.0000,0.000000000,0.000000000,0.000000000,WAITING_INITIALPOS*74188c23
#INSPVAA,COM1,0,65.0,UNKNOWN,0,1530.500,004c0000,54e2,13306;0,1530.500000000,0.00000000000,0.00000000000,0.0000,0.0000,0.0000,0.0000,0.000000000,0.000000000,0.000000000,WAITING_INITIALPOS*800946e6
#INSPVAA,COM1,0,65.0,UNKNOWN,0,1531.000,004c0000,54e2,13306;0,1531.000000000,0.00000000000,0.00000000000,0.0000,0.0000,0.0000,0.0000,0.000000000,0.000000000,0.000000000,WAITING_INITIALPOS*8271aea1
#INSPVAA,COM1,0,64.5,UNKNOWN,0,1531.500,004c0000,54e2,13306;0,1531.500000000,0.00000000000,0.00000000000,0.0000,0.0000,0.0000,0.0000,0.000000000,0.000000000,0.000000000,WAITING_INITIALPOS*f14feaa6
#INSPVAA,COM1,0,64.5,UNKNOWN,0,1532.000,004c0000,54e2,13306;0,1532.000000000,0.00000000000,0.00000000000,0.0000,0.0000,0.0000,0.0000,0.000000000,0.000000000,0.000000000,WAITING_INITIALPOS*a07d3983
#INSPVAA,COM1,0,64.5,UNKNOWN,0,1532.500,004c0000,54e2,13306;0,1532.500000000,0.00000000000,0.00000000000,0.0000,0.0000,0.0000,0.0000,0.000000000,0.000000000,0.000000000,WAITING_INITIALPOS*8ba0cc75
#INSPVAA,COM1,0,67.5,UNKNOWN,0,1533.000,004c0000,54e2,13306;0,1533.000000000,0.00000000000,0.00000000000,0.0000,0.0000,0.0000,0.0000,0.000000000,0.000000000,0.000000000,WAITING_INITIALPOS*003e136a
#INSPVAA,COM1,0,66.5,UNKNOWN,0,1533.500,004c0000,54e2,13306;0,1533.500000000,0.00000000000,0.00000000000,0.0000,0.0000,0.0000,0.0000,0.000000000,0.000000000,0.000000000,WAITING_INITIALPOS*5341f454
#INSPVAA,COM1,0,66.5,UNKNOWN,0,1534.000,004c0000,54e2,13306;0,1534.000000000,0.00000000000,0.00000000000,0.0000,0.0000,0.0000,0.0000,0.000000000,0.000000000,0.000000000,WAITING_INITIALPOS*a4e751b5
#INSPVAA,COM1,0,66.5,UNKNOWN,0,1534.500,004c0000,54e2,13306;0,1534.500000000,0.00000000000,0.00000000000,0.0000,0.0000,0.0000,0.0000,0.000000000,0.000000000,0.000000000,WAITING_INITIALPOS*8f3aa443
#INSPVAA,COM1,0,72.5,UNKNOWN,0,1535.000,004c0000,54e2,13306;0,1535.000000000,0.00000000000,0.00000000000,0.0000,0.0000,0.0000,0.0000,0.000000000,0.000000000,0.000000000,WAITING_INITIALPOS*217ce9f5
#INSPVAA,COM1,0,68.0,UNKNOWN,0,1535.500,004c0000,54e2,13306;0,1535.500000000,0.00000000000,0.00000000000,0.0000,0.0000,0.0000,0.0000,0.000000000,0.000000000,0.000000000,WAITING_INITIALPOS*3d91e8f8
#INSPVAA,COM1,0,68.0,UNKNOWN,0,1536.000,004c0000,54e2,13306;0,1536.000000000,0.00000000000,0.00000000000,0.0000,0.0000,0.0000,0.0000,0.000000000,0.000000000,0.000000000,WAITING_INITIALPOS*6ca33bdd
#INSPVAA,COM1,0,64.5,UNKNOWN,0,1536.500,004c0000,54e2,13306;0,1536.500000000,0.00000000000,0.00000000000,0.0000,0.0000,0.0000,0.0000,0.000000000,0.000000000,0.000000000,WAITING_INITIALPOS*2d34bab1
#INSPVAA,COM1,0,64.5,UNKNOWN,0,1537.000,004c0000,54e2,13306;0,1537.000000000,0.00000000000,0.00000000000,0.0000,0.0000,0.0000,0.0000,0.000000000,0.000000000,0.000000000,WAITING_INITIALPOS*2f4c52f6
#INSPVAA,COM1,0,64.5,UNKNOWN,0,1537.500,004c0000,54e2,13306;0,1537.500000000,0.00000000000,0.00000000000,0.0000,0.0000,0.0000,0.0000,0.000000000,0.000000000,0.000000000,WAITING_INITIALPOS*0491a700
#INSPVAA,COM1,0,78.5,UNKNOWN,0,1538.000,004c0000,54e2,13306;0,1538.000000000,0.00000000000,0.00000000000,0.0000,0.0000,0.0000,0.0000,0.000000000,0.000000000,0.000000000,WAITING_INITIALPOS*baa2d61b
#INSPVAA,COM1,0,43.5,UNKNOWN,0,1538.500,004c0000,54e2,13306;0,1538.500000000,0.00000000000,0.00000000000,0.0000,0.0000,0.0000,0.0000,0.000000000,0.000000000,0.000000000,WAITING_INITIALPOS*0e52b186
